[{"name":"城見ヶ丘","line":"いすみ線","company":"いすみ鉄道","code":"005136","lat":35.29169,"lng":140.25204},{"name":"大多喜","line":"いすみ線","company":"いすみ鉄道","code":"005145","lat":35.28619,"lng":140.24378},{"name":"上総中川","line":"いすみ線","company":"いすみ鉄道","code":"005154","lat":35.28269,"lng":140.28097},{"name":"国吉","line":"いすみ線","company":"いすみ鉄道","code":"005160","lat":35.28039,"lng":140.31468},{"name":"新田野","line":"いすみ線","company":"いすみ鉄道","code":"005169","lat":35.27573,"lng":140.32877},{"name":"小谷松","line":"いすみ線","company":"いすみ鉄道","code":"005182","lat":35.26877,"lng":140.25137},{"name":"上総東","line":"いすみ線","company":"いすみ鉄道","code":"005198","lat":35.26333,"lng":140.34531},{"name":"西大原","line":"いすみ線","company":"いすみ鉄道","code":"005204","lat":35.26051,"lng":140.37839},{"name":"東総元","line":"いすみ線","company":"いすみ鉄道","code":"005207","lat":35.25929,"lng":140.24727},{"name":"大原","line":"いすみ線","company":"いすみ鉄道","code":"005230","lat":35.25185,"lng":140.39099},{"name":"西畑","line":"いすみ線","company":"いすみ鉄道","code":"005233","lat":35.25064,"lng":140.21555},{"name":"久我原","line":"いすみ線","company":"いすみ鉄道","code":"005236","lat":35.25053,"lng":140.24745},{"name":"上総中野","line":"いすみ線","company":"いすみ鉄道","code":"005239","lat":35.24986,"lng":140.19998},{"name":"総元","line":"いすみ線","company":"いすみ鉄道","code":"005257","lat":35.24055,"lng":140.23994},{"name":"新橋","line":"東京臨海新交通臨海線","company":"ゆりかもめ","code":"003882","lat":35.6648,"lng":139.76082},{"name":"汐留","line":"東京臨海新交通臨海線","company":"ゆりかもめ","code":"003896","lat":35.66328,"lng":139.76036},{"name":"竹芝","line":"東京臨海新交通臨海線","company":"ゆりかもめ","code":"003958","lat":35.65378,"lng":139.76179},{"name":"豊洲","line":"東京臨海新交通臨海線","company":"ゆりかもめ","code":"003961","lat":35.65341,"lng":139.79504},{"name":"日の出","line":"東京臨海新交通臨海線","company":"ゆりかもめ","code":"003979","lat":35.64961,"lng":139.75932},{"name":"新豊洲","line":"東京臨海新交通臨海線","company":"ゆりかもめ","code":"003981","lat":35.64853,"lng":139.78985},{"name":"市場前","line":"東京臨海新交通臨海線","company":"ゆりかもめ","code":"004001","lat":35.64548,"lng":139.7853},{"name":"芝浦ふ頭","line":"東京臨海新交通臨海線","company":"ゆりかもめ","code":"004030","lat":35.64249,"lng":139.75786},{"name":"有明テニスの森","line":"東京臨海新交通臨海線","company":"ゆりかもめ","code":"004037","lat":35.63971,"lng":139.78913},{"name":"有明","line":"東京臨海新交通臨海線","company":"ゆりかもめ","code":"004064","lat":35.63482,"lng":139.79313},{"name":"東京ビッグサイト","line":"東京臨海新交通臨海線","company":"ゆりかもめ","code":"004087","lat":35.63059,"lng":139.792},{"name":"お台場海浜公園","line":"東京臨海新交通臨海線","company":"ゆりかもめ","code":"004091","lat":35.62961,"lng":139.77818},{"name":"台場","line":"東京臨海新交通臨海線","company":"ゆりかもめ","code":"004112","lat":35.62568,"lng":139.77103},{"name":"青海","line":"東京臨海新交通臨海線","company":"ゆりかもめ","code":"004119","lat":35.62447,"lng":139.78072},{"name":"東京国際クルーズターミナル","line":"東京臨海新交通臨海線","company":"ゆりかもめ","code":"004128","lat":35.621088,"lng":139.773325},{"name":"テレコムセンター","line":"東京臨海新交通臨海線","company":"ゆりかもめ","code":"004144","lat":35.61791,"lng":139.78001},{"name":"根小屋","line":"上信線","company":"上信電鉄","code":"002441","lat":36.29089,"lng":139.01927},{"name":"高崎商科大学前","line":"上信線","company":"上信電鉄","code":"002445","lat":36.28469,"lng":139.02893},{"name":"山名","line":"上信線","company":"上信電鉄","code":"002452","lat":36.27727,"lng":139.03813},{"name":"西山名","line":"上信線","company":"上信電鉄","code":"002461","lat":36.27058,"lng":139.03175},{"name":"馬庭","line":"上信線","company":"上信電鉄","code":"002465","lat":36.26133,"lng":139.00899},{"name":"東富岡","line":"上信線","company":"上信電鉄","code":"002467","lat":36.26083,"lng":138.90202},{"name":"上州福島","line":"上信線","company":"上信電鉄","code":"002478","lat":36.2564,"lng":138.92988},{"name":"吉井","line":"上信線","company":"上信電鉄","code":"002479","lat":36.25612,"lng":138.98475},{"name":"上州新屋","line":"上信線","company":"上信電鉄","code":"002480","lat":36.25603,"lng":138.95221},{"name":"西吉井","line":"上信線","company":"上信電鉄","code":"002481","lat":36.25577,"lng":138.96626},{"name":"千葉中央","line":"千原線","company":"京成電鉄","code":"004194","lat":35.60821,"lng":140.11739},{"name":"千葉寺","line":"千原線","company":"京成電鉄","code":"004260","lat":35.5902,"lng":140.13274},{"name":"大森台","line":"千原線","company":"京成電鉄","code":"004276","lat":35.58371,"lng":140.14992},{"name":"学園前","line":"千原線","company":"京成電鉄","code":"004338","lat":35.55982,"lng":140.15828},{"name":"おゆみ野","line":"千原線","company":"京成電鉄","code":"004365","lat":35.54975,"lng":140.16708},{"name":"ちはら台","line":"千原線","company":"京成電鉄","code":"004423","lat":35.53259,"lng":140.16995},{"name":"京成津田沼","line":"千葉線","company":"京成電鉄","code":"003748","lat":35.68349,"lng":140.02558},{"name":"京成幕張本郷","line":"千葉線","company":"京成電鉄","code":"003814","lat":35.67278,"lng":140.04184},{"name":"京成幕張","line":"千葉線","company":"京成電鉄","code":"003913","lat":35.66098,"lng":140.05574},{"name":"検見川","line":"千葉線","company":"京成電鉄","code":"003964","lat":35.65267,"lng":140.06631},{"name":"京成稲毛","line":"千葉線","company":"京成電鉄","code":"004048","lat":35.63771,"lng":140.08565},{"name":"みどり台","line":"千葉線","company":"京成電鉄","code":"004115","lat":35.62572,"lng":140.097},{"name":"西登戸","line":"千葉線","company":"京成電鉄","code":"004145","lat":35.61804,"lng":140.10258},{"name":"新千葉","line":"千葉線","company":"京成電鉄","code":"004172","lat":35.61255,"lng":140.10824},{"name":"京成千葉","line":"千葉線","company":"京成電鉄","code":"004176","lat":35.6117,"lng":140.11406},{"name":"千葉中央","line":"千葉線","company":"京成電鉄","code":"004195","lat":35.60821,"lng":140.11739},{"name":"千葉ニュータウン中央","line":"成田空港線","company":"京成電鉄","code":"003090","lat":35.79994,"lng":140.11538},{"name":"成田湯川","line":"成田空港線","company":"京成電鉄","code":"003093","lat":35.799577,"lng":140.292302},{"name":"印旛日本医大","line":"成田空港線","company":"京成電鉄","code":"003125","lat":35.787721,"lng":140.203038},{"name":"新鎌ヶ谷","line":"成田空港線","company":"京成電鉄","code":"003146","lat":35.77933,"lng":139.99739},{"name":"空港第2ビル","line":"成田空港線","company":"京成電鉄","code":"003174","lat":35.77178,"lng":140.38846},{"name":"東松戸","line":"成田空港線","company":"京成電鉄","code":"003187","lat":35.77038,"lng":139.94376},{"name":"成田空港","line":"成田空港線","company":"京成電鉄","code":"003204","lat":35.76452,"lng":140.38551},{"name":"京成高砂","line":"成田空港線","company":"京成電鉄","code":"003249","lat":35.75091,"lng":139.86746},{"name":"青砥","line":"押上線","company":"京成電鉄","code":"003280","lat":35.74532,"lng":139.85585},{"name":"京成立石","line":"押上線","company":"京成電鉄","code":"003323","lat":35.73804,"lng":139.84734},{"name":"四ツ木","line":"押上線","company":"京成電鉄","code":"003376","lat":35.73126,"lng":139.83398},{"name":"八広","line":"押上線","company":"京成電鉄","code":"003422","lat":35.72774,"lng":139.82889},{"name":"京成曳舟","line":"押上線","company":"京成電鉄","code":"003477","lat":35.71812,"lng":139.81963},{"name":"押上","line":"押上線","company":"京成電鉄","code":"003527","lat":35.70972,"lng":139.81158},{"name":"京成成田","line":"本線","company":"京成電鉄","code":"003167","lat":35.77671,"lng":140.31612},{"name":"空港第2ビル","line":"本線","company":"京成電鉄","code":"003175","lat":35.77178,"lng":140.38846},{"name":"成田空港","line":"本線","company":"京成電鉄","code":"003205","lat":35.76452,"lng":140.38551},{"name":"公津の杜","line":"本線","company":"京成電鉄","code":"003219","lat":35.76009,"lng":140.29403},{"name":"宗吾参道","line":"本線","company":"京成電鉄","code":"003240","lat":35.75196,"lng":140.28031},{"name":"京成高砂","line":"本線","company":"京成電鉄","code":"003250","lat":35.75091,"lng":139.86746},{"name":"堀切菖蒲園","line":"本線","company":"京成電鉄","code":"003273","lat":35.74765,"lng":139.82706},{"name":"お花茶屋","line":"本線","company":"京成電鉄","code":"003274","lat":35.74768,"lng":139.83944},{"name":"青砥","line":"本線","company":"京成電鉄","code":"003281","lat":35.74532,"lng":139.85585},{"name":"京成関屋","line":"本線","company":"京成電鉄","code":"003290","lat":35.74393,"lng":139.81144},{"name":"千住大橋","line":"本線","company":"京成電鉄","code":"003301","lat":35.74255,"lng":139.79661},{"name":"町屋","line":"本線","company":"京成電鉄","code":"003302","lat":35.74197,"lng":139.78108},{"name":"京成小岩","line":"本線","company":"京成電鉄","code":"003303","lat":35.74182,"lng":139.88419},{"name":"江戸川","line":"本線","company":"京成電鉄","code":"003331","lat":35.73772,"lng":139.89646},{"name":"新三河島","line":"本線","company":"京成電鉄","code":"003339","lat":35.73693,"lng":139.77348},{"name":"京成酒々井","line":"本線","company":"京成電鉄","code":"003342","lat":35.73644,"lng":140.2697},{"name":"国府台","line":"本線","company":"京成電鉄","code":"003346","lat":35.73618,"lng":139.90426},{"name":"市川真間","line":"本線","company":"京成電鉄","code":"003380","lat":35.73095,"lng":139.91233},{"name":"京成臼井","line":"本線","company":"京成電鉄","code":"003392","lat":35.73053,"lng":140.1813},{"name":"大佐倉","line":"本線","company":"京成電鉄","code":"003394","lat":35.72978,"lng":140.25042},{"name":"菅野","line":"本線","company":"京成電鉄","code":"003412","lat":35.72802,"lng":139.91994},{"name":"日暮里","line":"本線","company":"京成電鉄","code":"003414","lat":35.72748,"lng":139.77215},{"name":"京成佐倉","line":"本線","company":"京成電鉄","code":"003438","lat":35.72524,"lng":140.23072},{"name":"京成八幡","line":"本線","company":"京成電鉄","code":"003445","lat":35.72362,"lng":139.92854},{"name":"ユーカリが丘","line":"本線","company":"京成電鉄","code":"003458","lat":35.72197,"lng":140.15698},{"name":"鬼越","line":"本線","company":"京成電鉄","code":"003472","lat":35.71955,"lng":139.9383},{"name":"志津","line":"本線","company":"京成電鉄","code":"003482","lat":35.71734,"lng":140.14453},{"name":"京成中山","line":"本線","company":"京成電鉄","code":"003485","lat":35.71673,"lng":139.94493},{"name":"勝田台","line":"本線","company":"京成電鉄","code":"003492","lat":35.71547,"lng":140.12685},{"name":"東中山","line":"本線","company":"京成電鉄","code":"003496","lat":35.7143,"lng":139.9531},{"name":"京成大和田","line":"本線","company":"京成電鉄","code":"003511","lat":35.71259,"lng":140.10925},{"name":"京成西船","line":"本線","company":"京成電鉄","code":"003516","lat":35.71146,"lng":139.95927},{"name":"京成上野","line":"本線","company":"京成電鉄","code":"003521","lat":35.71081,"lng":139.77362},{"name":"海神","line":"本線","company":"京成電鉄","code":"003567","lat":35.70569,"lng":139.97213},{"name":"八千代台","line":"本線","company":"京成電鉄","code":"003597","lat":35.70182,"lng":140.09135},{"name":"京成船橋","line":"本線","company":"京成電鉄","code":"003609","lat":35.70029,"lng":139.98591},{"name":"大神宮下","line":"本線","company":"京成電鉄","code":"003664","lat":35.69365,"lng":139.99155},{"name":"船橋競馬場","line":"本線","company":"京成電鉄","code":"003699","lat":35.68993,"lng":139.99733},{"name":"実籾","line":"本線","company":"京成電鉄","code":"003718","lat":35.68697,"lng":140.06875},{"name":"京成大久保","line":"本線","company":"京成電鉄","code":"003725","lat":35.68592,"lng":140.04917},{"name":"谷津","line":"本線","company":"京成電鉄","code":"003731","lat":35.68566,"lng":140.00695},{"name":"京成津田沼","line":"本線","company":"京成電鉄","code":"003749","lat":35.68349,"lng":140.02558},{"name":"京成成田","line":"東成田線","company":"京成電鉄","code":"003166","lat":35.77671,"lng":140.31612},{"name":"東成田","line":"東成田線","company":"京成電鉄","code":"003189","lat":35.76902,"lng":140.38774},{"name":"京成金町","line":"金町線","company":"京成電鉄","code":"003195","lat":35.76815,"lng":139.87049},{"name":"柴又","line":"金町線","company":"京成電鉄","code":"003232","lat":35.75606,"lng":139.87503},{"name":"京成高砂","line":"金町線","company":"京成電鉄","code":"003248","lat":35.75091,"lng":139.86746},{"name":"堀ノ内","line":"久里浜線","company":"京浜急行電鉄","code":"005199","lat":35.26351,"lng":139.68635},{"name":"新大津","line":"久里浜線","company":"京浜急行電鉄","code":"005211","lat":35.25755,"lng":139.6904},{"name":"北久里浜","line":"久里浜線","company":"京浜急行電鉄","code":"005241","lat":35.24838,"lng":139.68639},{"name":"京急久里浜","line":"久里浜線","company":"京浜急行電鉄","code":"005277","lat":35.2308,"lng":139.7021},{"name":"YRP野比","line":"久里浜線","company":"京浜急行電鉄","code":"005320","lat":35.21195,"lng":139.68487},{"name":"京急長沢","line":"久里浜線","company":"京浜急行電鉄","code":"005333","lat":35.20524,"lng":139.67352},{"name":"津久井浜","line":"久里浜線","company":"京浜急行電鉄","code":"005356","lat":35.19767,"lng":139.66428},{"name":"三浦海岸","line":"久里浜線","company":"京浜急行電鉄","code":"005401","lat":35.1878,"lng":139.65274},{"name":"三崎口","line":"久里浜線","company":"京浜急行電鉄","code":"005419","lat":35.17768,"lng":139.63286},{"name":"大師橋","line":"大師線","company":"京浜急行電鉄","code":"004407","lat":35.53661,"lng":139.74087},{"name":"東門前","line":"大師線","company":"京浜急行電鉄","code":"004408","lat":35.53659,"lng":139.73471},{"name":"川崎大師","line":"大師線","company":"京浜急行電鉄","code":"004413","lat":35.53585,"lng":139.72641},{"name":"鈴木町","line":"大師線","company":"京浜急行電鉄","code":"004415","lat":35.5354,"lng":139.72109},{"name":"港町","line":"大師線","company":"京浜急行電鉄","code":"004417","lat":35.53503,"lng":139.71314},{"name":"小島新田","line":"大師線","company":"京浜急行電鉄","code":"004418","lat":35.53457,"lng":139.74795},{"name":"京急川崎","line":"大師線","company":"京浜急行電鉄","code":"004424","lat":35.53338,"lng":139.70132},{"name":"泉岳寺","line":"本線","company":"京浜急行電鉄","code":"004043","lat":35.63746,"lng":139.73938},{"name":"品川","line":"本線","company":"京浜急行電鉄","code":"004101","lat":35.62689,"lng":139.73807},{"name":"北品川","line":"本線","company":"京浜急行電鉄","code":"004125","lat":35.62205,"lng":139.73941},{"name":"新馬場","line":"本線","company":"京浜急行電鉄","code":"004153","lat":35.61586,"lng":139.74166},{"name":"青物横丁","line":"本線","company":"京浜急行電鉄","code":"004184","lat":35.60864,"lng":139.74324},{"name":"鮫洲","line":"本線","company":"京浜急行電鉄","code":"004220","lat":35.60469,"lng":139.74214},{"name":"立会川","line":"本線","company":"京浜急行電鉄","code":"004244","lat":35.59817,"lng":139.73879},{"name":"大森海岸","line":"本線","company":"京浜急行電鉄","code":"004268","lat":35.58705,"lng":139.73524},{"name":"平和島","line":"本線","company":"京浜急行電鉄","code":"004294","lat":35.5795,"lng":139.73519},{"name":"大森町","line":"本線","company":"京浜急行電鉄","code":"004307","lat":35.57279,"lng":139.73219},{"name":"梅屋敷","line":"本線","company":"京浜急行電鉄","code":"004319","lat":35.56707,"lng":139.7284},{"name":"京急蒲田","line":"本線","company":"京浜急行電鉄","code":"004332","lat":35.562867,"lng":139.725157},{"name":"雑色","line":"本線","company":"京浜急行電鉄","code":"004367","lat":35.55006,"lng":139.7152},{"name":"六郷土手","line":"本線","company":"京浜急行電鉄","code":"004399","lat":35.54081,"lng":139.70781},{"name":"京急川崎","line":"本線","company":"京浜急行電鉄","code":"004425","lat":35.53338,"lng":139.70132},{"name":"八丁畷","line":"本線","company":"京浜急行電鉄","code":"004449","lat":35.52331,"lng":139.69172},{"name":"鶴見市場","line":"本線","company":"京浜急行電鉄","code":"004465","lat":35.51801,"lng":139.68677},{"name":"京急鶴見","line":"本線","company":"京浜急行電鉄","code":"004506","lat":35.50725,"lng":139.67811},{"name":"花月総持寺","line":"本線","company":"京浜急行電鉄","code":"004520","lat":35.50002,"lng":139.67252},{"name":"生麦","line":"本線","company":"京浜急行電鉄","code":"004538","lat":35.49524,"lng":139.66691},{"name":"京急新子安","line":"本線","company":"京浜急行電鉄","code":"004560","lat":35.48703,"lng":139.65536},{"name":"子安","line":"本線","company":"京浜急行電鉄","code":"004569","lat":35.48433,"lng":139.64435},{"name":"神奈川新町","line":"本線","company":"京浜急行電鉄","code":"004579","lat":35.48104,"lng":139.63956},{"name":"京急東神奈川","line":"本線","company":"京浜急行電鉄","code":"004598","lat":35.47718,"lng":139.63444},{"name":"神奈川","line":"本線","company":"京浜急行電鉄","code":"004612","lat":35.47099,"lng":139.62719},{"name":"横浜","line":"本線","company":"京浜急行電鉄","code":"004631","lat":35.46528,"lng":139.62237},{"name":"戸部","line":"本線","company":"京浜急行電鉄","code":"004660","lat":35.45619,"lng":139.61976},{"name":"日ノ出町","line":"本線","company":"京浜急行電鉄","code":"004696","lat":35.44591,"lng":139.62652},{"name":"黄金町","line":"本線","company":"京浜急行電鉄","code":"004712","lat":35.4399,"lng":139.62315},{"name":"南太田","line":"本線","company":"京浜急行電鉄","code":"004719","lat":35.43699,"lng":139.61427},{"name":"井土ヶ谷","line":"本線","company":"京浜急行電鉄","code":"004724","lat":35.43402,"lng":139.60118},{"name":"弘明寺","line":"本線","company":"京浜急行電鉄","code":"004756","lat":35.42449,"lng":139.59679},{"name":"上大岡","line":"本線","company":"京浜急行電鉄","code":"004790","lat":35.41026,"lng":139.59658},{"name":"屏風浦","line":"本線","company":"京浜急行電鉄","code":"004852","lat":35.39458,"lng":139.60997},{"name":"杉田","line":"本線","company":"京浜急行電鉄","code":"004877","lat":35.38427,"lng":139.61541},{"name":"京急富岡","line":"本線","company":"京浜急行電鉄","code":"004927","lat":35.36619,"lng":139.62983},{"name":"能見台","line":"本線","company":"京浜急行電鉄","code":"004944","lat":35.36119,"lng":139.62947},{"name":"金沢文庫","line":"本線","company":"京浜急行電鉄","code":"004986","lat":35.34372,"lng":139.62189},{"name":"金沢八景","line":"本線","company":"京浜急行電鉄","code":"005021","lat":35.33047,"lng":139.62014},{"name":"追浜","line":"本線","company":"京浜急行電鉄","code":"005066","lat":35.31632,"lng":139.62459},{"name":"京急田浦","line":"本線","company":"京浜急行電鉄","code":"005113","lat":35.30146,"lng":139.62482},{"name":"安針塚","line":"本線","company":"京浜急行電鉄","code":"005144","lat":35.28673,"lng":139.64238},{"name":"逸見","line":"本線","company":"京浜急行電鉄","code":"005159","lat":35.28092,"lng":139.652},{"name":"汐入","line":"本線","company":"京浜急行電鉄","code":"005161","lat":35.28029,"lng":139.66184},{"name":"横須賀中央","line":"本線","company":"京浜急行電鉄","code":"005163","lat":35.27902,"lng":139.66937},{"name":"県立大学","line":"本線","company":"京浜急行電鉄","code":"005181","lat":35.27041,"lng":139.67611},{"name":"堀ノ内","line":"本線","company":"京浜急行電鉄","code":"005200","lat":35.26351,"lng":139.68635},{"name":"京急大津","line":"本線","company":"京浜急行電鉄","code":"005202","lat":35.26133,"lng":139.6946},{"name":"馬堀海岸","line":"本線","company":"京浜急行電鉄","code":"005206","lat":35.25958,"lng":139.70699},{"name":"浦賀","line":"本線","company":"京浜急行電鉄","code":"005227","lat":35.25112,"lng":139.71502},{"name":"京急蒲田","line":"空港線","company":"京浜急行電鉄","code":"004331","lat":35.562867,"lng":139.725157},{"name":"糀谷","line":"空港線","company":"京浜急行電鉄","code":"004349","lat":35.55422,"lng":139.72985},{"name":"大鳥居","line":"空港線","company":"京浜急行電鉄","code":"004356","lat":35.55209,"lng":139.74105},{"name":"穴守稲荷","line":"空港線","company":"京浜急行電鉄","code":"004364","lat":35.55022,"lng":139.7471},{"name":"羽田空港第1・第2ターミナル","line":"空港線","company":"京浜急行電鉄","code":"004368","lat":35.54904,"lng":139.78448},{"name":"天空橋","line":"空港線","company":"京浜急行電鉄","code":"004374","lat":35.54863,"lng":139.75389},{"name":"羽田空港第3ターミナル","line":"空港線","company":"京浜急行電鉄","code":"004382","lat":35.545124,"lng":139.76606},{"name":"金沢八景","line":"逗子線","company":"京浜急行電鉄","code":"005020","lat":35.33047,"lng":139.62014},{"name":"六浦","line":"逗子線","company":"京浜急行電鉄","code":"005043","lat":35.32255,"lng":139.61114},{"name":"神武寺","line":"逗子線","company":"京浜急行電鉄","code":"005098","lat":35.30601,"lng":139.5926},{"name":"逗子・葉山","line":"逗子線","company":"京浜急行電鉄","code":"005130","lat":35.29364,"lng":139.58036},{"name":"吉祥寺","line":"井の頭線","company":"京王電鉄","code":"003588","lat":35.70205,"lng":139.58046},{"name":"井の頭公園","line":"井の頭線","company":"京王電鉄","code":"003642","lat":35.69755,"lng":139.58282},{"name":"三鷹台","line":"井の頭線","company":"京王電鉄","code":"003674","lat":35.6922,"lng":139.58874},{"name":"久我山","line":"井の頭線","company":"京王電鉄","code":"003710","lat":35.6884,"lng":139.59888},{"name":"富士見ヶ丘","line":"井の頭線","company":"京王電鉄","code":"003736","lat":35.68504,"lng":139.60658},{"name":"高井戸","line":"井の頭線","company":"京王電鉄","code":"003752","lat":35.68329,"lng":139.61465},{"name":"浜田山","line":"井の頭線","company":"京王電鉄","code":"003763","lat":35.68137,"lng":139.62814},{"name":"西永福","line":"井の頭線","company":"京王電鉄","code":"003777","lat":35.67868,"lng":139.63572},{"name":"永福町","line":"井の頭線","company":"京王電鉄","code":"003794","lat":35.67597,"lng":139.64331},{"name":"明大前","line":"井の頭線","company":"京王電鉄","code":"003846","lat":35.66863,"lng":139.65048},{"name":"東松原","line":"井の頭線","company":"京王電鉄","code":"003899","lat":35.66258,"lng":139.65623},{"name":"新代田","line":"井の頭線","company":"京王電鉄","code":"003901","lat":35.66258,"lng":139.66089},{"name":"下北沢","line":"井の頭線","company":"京王電鉄","code":"003908","lat":35.6615,"lng":139.66717},{"name":"池ノ上","line":"井の頭線","company":"京王電鉄","code":"003914","lat":35.66028,"lng":139.67394},{"name":"駒場東大前","line":"井の頭線","company":"京王電鉄","code":"003929","lat":35.65886,"lng":139.68317},{"name":"渋谷","line":"井の頭線","company":"京王電鉄","code":"003930","lat":35.658403,"lng":139.698906},{"name":"神泉","line":"井の頭線","company":"京王電鉄","code":"003938","lat":35.6572,"lng":139.69357},{"name":"新宿","line":"京王線","company":"京王電鉄","code":"003700","lat":35.69047,"lng":139.69917},{"name":"初台","line":"京王線","company":"京王電鉄","code":"003764","lat":35.6817,"lng":139.68862},{"name":"幡ヶ谷","line":"京王線","company":"京王電鉄","code":"003791","lat":35.6769,"lng":139.67821},{"name":"笹塚","line":"京王線","company":"京王電鉄","code":"003806","lat":35.67388,"lng":139.66789},{"name":"府中","line":"京王線","company":"京王電鉄","code":"003821","lat":35.67204,"lng":139.48079},{"name":"代田橋","line":"京王線","company":"京王電鉄","code":"003830","lat":35.67131,"lng":139.66005},{"name":"芦花公園","line":"京王線","company":"京王電鉄","code":"003832","lat":35.67065,"lng":139.60896},{"name":"八幡山","line":"京王線","company":"京王電鉄","code":"003836","lat":35.66999,"lng":139.61506},{"name":"上北沢","line":"京王線","company":"京王電鉄","code":"003849","lat":35.66897,"lng":139.62263},{"name":"東府中","line":"京王線","company":"京王電鉄","code":"003850","lat":35.66854,"lng":139.49602},{"name":"明大前","line":"京王線","company":"京王電鉄","code":"003855","lat":35.66852,"lng":139.65112},{"name":"分倍河原","line":"京王線","company":"京王電鉄","code":"003858","lat":35.66739,"lng":139.46816},{"name":"千歳烏山","line":"京王線","company":"京王電鉄","code":"003861","lat":35.66751,"lng":139.59948},{"name":"桜上水","line":"京王線","company":"京王電鉄","code":"003862","lat":35.66751,"lng":139.63231},{"name":"多磨霊園","line":"京王線","company":"京王電鉄","code":"003871","lat":35.6667,"lng":139.50117},{"name":"下高井戸","line":"京王線","company":"京王電鉄","code":"003874","lat":35.66622,"lng":139.64098},{"name":"武蔵野台","line":"京王線","company":"京王電鉄","code":"003891","lat":35.66431,"lng":139.51052},{"name":"仙川","line":"京王線","company":"京王電鉄","code":"003903","lat":35.66218,"lng":139.58468},{"name":"高幡不動","line":"京王線","company":"京王電鉄","code":"003904","lat":35.66188,"lng":139.41397},{"name":"飛田給","line":"京王線","company":"京王電鉄","code":"003916","lat":35.66034,"lng":139.52288},{"name":"中河原","line":"京王線","company":"京王電鉄","code":"003920","lat":35.65941,"lng":139.45694},{"name":"つつじヶ丘","line":"京王線","company":"京王電鉄","code":"003933","lat":35.65762,"lng":139.57434},{"name":"京王八王子","line":"京王線","company":"京王電鉄","code":"003934","lat":35.65849,"lng":139.34246},{"name":"百草園","line":"京王線","company":"京王電鉄","code":"003936","lat":35.65752,"lng":139.43082},{"name":"西調布","line":"京王線","company":"京王電鉄","code":"003937","lat":35.65772,"lng":139.52866},{"name":"南平","line":"京王線","company":"京王電鉄","code":"003952","lat":35.65555,"lng":139.39302},{"name":"柴崎","line":"京王線","company":"京王電鉄","code":"003959","lat":35.65365,"lng":139.56589},{"name":"調布","line":"京王線","company":"京王電鉄","code":"003966","lat":35.65211,"lng":139.54356},{"name":"聖蹟桜ヶ丘","line":"京王線","company":"京王電鉄","code":"003971","lat":35.65068,"lng":139.44616},{"name":"国領","line":"京王線","company":"京王電鉄","code":"003973","lat":35.64992,"lng":139.55779},{"name":"布田","line":"京王線","company":"京王電鉄","code":"003975","lat":35.64993,"lng":139.55108},{"name":"平山城址公園","line":"京王線","company":"京王電鉄","code":"003990","lat":35.64794,"lng":139.38057},{"name":"北野","line":"京王線","company":"京王電鉄","code":"004007","lat":35.64495,"lng":139.35308},{"name":"長沼","line":"京王線","company":"京王電鉄","code":"004027","lat":35.6428,"lng":139.36507},{"name":"高幡不動","line":"動物園線","company":"京王電鉄","code":"003905","lat":35.66188,"lng":139.41397},{"name":"多摩動物公園","line":"動物園線","company":"京王電鉄","code":"003977","lat":35.64901,"lng":139.4046},{"name":"調布","line":"相模原線","company":"京王電鉄","code":"003967","lat":35.65211,"lng":139.54356},{"name":"京王多摩川","line":"相模原線","company":"京王電鉄","code":"004013","lat":35.64339,"lng":139.53572},{"name":"稲城","line":"相模原線","company":"京王電鉄","code":"004056","lat":35.63592,"lng":139.49905},{"name":"京王稲田堤","line":"相模原線","company":"京王電鉄","code":"004066","lat":35.63376,"lng":139.53088},{"name":"京王よみうりランド","line":"相模原線","company":"京王電鉄","code":"004070","lat":35.63303,"lng":139.51865},{"name":"京王永山","line":"相模原線","company":"京王電鉄","code":"004086","lat":35.62993,"lng":139.44935},{"name":"京王多摩センター","line":"相模原線","company":"京王電鉄","code":"004116","lat":35.62558,"lng":139.42516},{"name":"京王堀之内","line":"相模原線","company":"京王電鉄","code":"004120","lat":35.62497,"lng":139.40131},{"name":"若葉台","line":"相模原線","company":"京王電鉄","code":"004139","lat":35.61928,"lng":139.47342},{"name":"南大沢","line":"相模原線","company":"京王電鉄","code":"004163","lat":35.61458,"lng":139.38091},{"name":"多摩境","line":"相模原線","company":"京王電鉄","code":"004234","lat":35.60234,"lng":139.36735},{"name":"橋本","line":"相模原線","company":"京王電鉄","code":"004250","lat":35.5947,"lng":139.34438},{"name":"東府中","line":"競馬場線","company":"京王電鉄","code":"003851","lat":35.66854,"lng":139.49602},{"name":"府中競馬正門前","line":"競馬場線","company":"京王電鉄","code":"003856","lat":35.66833,"lng":139.48584},{"name":"北野","line":"高尾線","company":"京王電鉄","code":"004008","lat":35.64495,"lng":139.35308},{"name":"京王片倉","line":"高尾線","company":"京王電鉄","code":"004009","lat":35.64448,"lng":139.33653},{"name":"山田","line":"高尾線","company":"京王電鉄","code":"004010","lat":35.64438,"lng":139.32036},{"name":"めじろ台","line":"高尾線","company":"京王電鉄","code":"004019","lat":35.6434,"lng":139.30777},{"name":"高尾","line":"高尾線","company":"京王電鉄","code":"004033","lat":35.64149,"lng":139.28094},{"name":"狭間","line":"高尾線","company":"京王電鉄","code":"004035","lat":35.64074,"lng":139.29295},{"name":"高尾山口","line":"高尾線","company":"京王電鉄","code":"004075","lat":35.63192,"lng":139.2695},{"name":"大雄山","line":"大雄山線","company":"伊豆箱根鉄道","code":"005057","lat":35.31913,"lng":139.10328},{"name":"富士フイルム前","line":"大雄山線","company":"伊豆箱根鉄道","code":"005060","lat":35.3178,"lng":139.10911},{"name":"和田河原","line":"大雄山線","company":"伊豆箱根鉄道","code":"005064","lat":35.31601,"lng":139.11779},{"name":"塚原","line":"大雄山線","company":"伊豆箱根鉄道","code":"005112","lat":35.30112,"lng":139.12691},{"name":"岩原","line":"大雄山線","company":"伊豆箱根鉄道","code":"005117","lat":35.29857,"lng":139.12903},{"name":"相模沼田","line":"大雄山線","company":"伊豆箱根鉄道","code":"005135","lat":35.292,"lng":139.13429},{"name":"飯田岡","line":"大雄山線","company":"伊豆箱根鉄道","code":"005140","lat":35.28767,"lng":139.13962},{"name":"穴部","line":"大雄山線","company":"伊豆箱根鉄道","code":"005162","lat":35.27962,"lng":139.14904},{"name":"五百羅漢","line":"大雄山線","company":"伊豆箱根鉄道","code":"005172","lat":35.27491,"lng":139.15595},{"name":"井細田","line":"大雄山線","company":"伊豆箱根鉄道","code":"005183","lat":35.26865,"lng":139.15742},{"name":"緑町","line":"大雄山線","company":"伊豆箱根鉄道","code":"005208","lat":35.259,"lng":139.15844},{"name":"小田原","line":"大雄山線","company":"伊豆箱根鉄道","code":"005214","lat":35.25613,"lng":139.15631},{"name":"三島","line":"駿豆線","company":"伊豆箱根鉄道","code":"005603","lat":35.12572,"lng":138.90989},{"name":"三島広小路","line":"駿豆線","company":"伊豆箱根鉄道","code":"005631","lat":35.11898,"lng":138.91144},{"name":"三島田町","line":"駿豆線","company":"伊豆箱根鉄道","code":"005642","lat":35.11586,"lng":138.91934},{"name":"三島二日町","line":"駿豆線","company":"伊豆箱根鉄道","code":"005663","lat":35.11064,"lng":138.92646},{"name":"大場","line":"駿豆線","company":"伊豆箱根鉄道","code":"005718","lat":35.09131,"lng":138.93953},{"name":"伊豆仁田","line":"駿豆線","company":"伊豆箱根鉄道","code":"005744","lat":35.0794,"lng":138.94146},{"name":"原木","line":"駿豆線","company":"伊豆箱根鉄道","code":"005782","lat":35.06623,"lng":138.94358},{"name":"韮山","line":"駿豆線","company":"伊豆箱根鉄道","code":"005823","lat":35.05419,"lng":138.94537},{"name":"伊豆長岡","line":"駿豆線","company":"伊豆箱根鉄道","code":"005856","lat":35.04048,"lng":138.9474},{"name":"田京","line":"駿豆線","company":"伊豆箱根鉄道","code":"005936","lat":35.01528,"lng":138.94596},{"name":"印西牧の原","line":"北総線","company":"北総鉄道","code":"003083","lat":35.80348,"lng":140.16778},{"name":"千葉ニュータウン中央","line":"北総線","company":"北総鉄道","code":"003091","lat":35.79994,"lng":140.11538},{"name":"印旛日本医大","line":"北総線","company":"北総鉄道","code":"003126","lat":35.787721,"lng":140.203038},{"name":"小室","line":"北総線","company":"北総鉄道","code":"003129","lat":35.78694,"lng":140.07517},{"name":"白井","line":"北総線","company":"北総鉄道","code":"003135","lat":35.78472,"lng":140.05288},{"name":"西白井","line":"北総線","company":"北総鉄道","code":"003137","lat":35.78442,"lng":140.0309},{"name":"新鎌ヶ谷","line":"北総線","company":"北総鉄道","code":"003147","lat":35.77933,"lng":139.99739},{"name":"松飛台","line":"北総線","company":"北総鉄道","code":"003169","lat":35.77538,"lng":139.95844},{"name":"大町","line":"北総線","company":"北総鉄道","code":"003170","lat":35.77518,"lng":139.9743},{"name":"東松戸","line":"北総線","company":"北総鉄道","code":"003188","lat":35.77038,"lng":139.94376},{"name":"秋山","line":"北総線","company":"北総鉄道","code":"003206","lat":35.76554,"lng":139.93222},{"name":"北国分","line":"北総線","company":"北総鉄道","code":"003213","lat":35.76302,"lng":139.91513},{"name":"矢切","line":"北総線","company":"北総鉄道","code":"003229","lat":35.75775,"lng":139.90138},{"name":"新柴又","line":"北総線","company":"北総鉄道","code":"003244","lat":35.75173,"lng":139.88053},{"name":"京成高砂","line":"北総線","company":"北総鉄道","code":"003251","lat":35.75091,"lng":139.86746},{"name":"十国峠山麓","line":"十国鋼索線","company":"十国峠","code":"005594","lat":35.12767,"lng":139.03763},{"name":"十国峠山頂","line":"十国鋼索線","company":"十国峠","code":"005595","lat":35.12768,"lng":139.0411},{"name":"栄町","line":"1号線","company":"千葉都市モノレール","code":"004169","lat":35.61323,"lng":140.11859},{"name":"千葉","line":"1号線","company":"千葉都市モノレール","code":"004173","lat":35.6116,"lng":140.11365},{"name":"葭川公園","line":"1号線","company":"千葉都市モノレール","code":"004187","lat":35.60918,"lng":140.12007},{"name":"千葉みなと","line":"1号線","company":"千葉都市モノレール","code":"004201","lat":35.60762,"lng":140.10224},{"name":"市役所前","line":"1号線","company":"千葉都市モノレール","code":"004203","lat":35.6067,"lng":140.10718},{"name":"県庁前","line":"1号線","company":"千葉都市モノレール","code":"004226","lat":35.60357,"lng":140.12225},{"name":"スポーツセンター","line":"2号線","company":"千葉都市モノレール","code":"004023","lat":35.64305,"lng":140.11609},{"name":"動物公園","line":"2号線","company":"千葉都市モノレール","code":"004028","lat":35.6425,"lng":140.12587},{"name":"穴川","line":"2号線","company":"千葉都市モノレール","code":"004039","lat":35.63928,"lng":140.11162},{"name":"みつわ台","line":"2号線","company":"千葉都市モノレール","code":"004041","lat":35.63849,"lng":140.13521},{"name":"都賀","line":"2号線","company":"千葉都市モノレール","code":"004060","lat":35.63572,"lng":140.14908},{"name":"天台","line":"2号線","company":"千葉都市モノレール","code":"004080","lat":35.63113,"lng":140.11293},{"name":"桜木","line":"2号線","company":"千葉都市モノレール","code":"004081","lat":35.63124,"lng":140.16135},{"name":"小倉台","line":"2号線","company":"千葉都市モノレール","code":"004099","lat":35.62798,"lng":140.17222},{"name":"千城台北","line":"2号線","company":"千葉都市モノレール","code":"004103","lat":35.6274,"lng":140.18238},{"name":"作草部","line":"2号線","company":"千葉都市モノレール","code":"004113","lat":35.62546,"lng":140.11551},{"name":"千城台","line":"2号線","company":"千葉都市モノレール","code":"004126","lat":35.62212,"lng":140.18884},{"name":"千葉公園","line":"2号線","company":"千葉都市モノレール","code":"004137","lat":35.61937,"lng":140.1181},{"name":"千葉","line":"2号線","company":"千葉都市モノレール","code":"004174","lat":35.6116,"lng":140.11365},{"name":"内宿","line":"伊奈線","company":"埼玉新都市交通","code":"002742","lat":36.01404,"lng":139.59968},{"name":"羽貫","line":"伊奈線","company":"埼玉新都市交通","code":"002747","lat":36.00741,"lng":139.60822},{"name":"伊奈中央","line":"伊奈線","company":"埼玉新都市交通","code":"002756","lat":35.99919,"lng":139.61726},{"name":"志久","line":"伊奈線","company":"埼玉新都市交通","code":"002770","lat":35.99135,"lng":139.62208},{"name":"丸山","line":"伊奈線","company":"埼玉新都市交通","code":"002787","lat":35.97991,"lng":139.62455},{"name":"沼南","line":"伊奈線","company":"埼玉新都市交通","code":"002802","lat":35.97072,"lng":139.62347},{"name":"原市","line":"伊奈線","company":"埼玉新都市交通","code":"002812","lat":35.96417,"lng":139.62225},{"name":"吉野原","line":"伊奈線","company":"埼玉新都市交通","code":"002824","lat":35.95667,"lng":139.62083},{"name":"今羽","line":"伊奈線","company":"埼玉新都市交通","code":"002835","lat":35.94965,"lng":139.61955},{"name":"東宮原","line":"伊奈線","company":"埼玉新都市交通","code":"002844","lat":35.94233,"lng":139.61815},{"name":"加茂宮","line":"伊奈線","company":"埼玉新都市交通","code":"002857","lat":35.93545,"lng":139.61687},{"name":"鉄道博物館","line":"伊奈線","company":"埼玉新都市交通","code":"002881","lat":35.91995,"lng":139.61795},{"name":"大宮","line":"伊奈線","company":"埼玉新都市交通","code":"002906","lat":35.90786,"lng":139.62216},{"name":"浦和美園","line":"埼玉高速鉄道線","company":"埼玉高速鉄道","code":"002933","lat":35.89304,"lng":139.72827},{"name":"東川口","line":"埼玉高速鉄道線","company":"埼玉高速鉄道","code":"002956","lat":35.87599,"lng":139.74424},{"name":"戸塚安行","line":"埼玉高速鉄道線","company":"埼玉高速鉄道","code":"002988","lat":35.85818,"lng":139.75376},{"name":"新井宿","line":"埼玉高速鉄道線","company":"埼玉高速鉄道","code":"003017","lat":35.84286,"lng":139.73712},{"name":"鳩ヶ谷","line":"埼玉高速鉄道線","company":"埼玉高速鉄道","code":"003036","lat":35.83,"lng":139.73653},{"name":"南鳩ヶ谷","line":"埼玉高速鉄道線","company":"埼玉高速鉄道","code":"003054","lat":35.81527,"lng":139.73588},{"name":"川口元郷","line":"埼玉高速鉄道線","company":"埼玉高速鉄道","code":"003092","lat":35.7995,"lng":139.72946},{"name":"赤羽岩淵","line":"埼玉高速鉄道線","company":"埼玉高速鉄道","code":"003142","lat":35.7831,"lng":139.72346},{"name":"上北台","line":"多摩都市モノレール線","company":"多摩都市モノレール","code":"003283","lat":35.74549,"lng":139.41586},{"name":"桜街道","line":"多摩都市モノレール線","company":"多摩都市モノレール","code":"003320","lat":35.73875,"lng":139.41661},{"name":"玉川上水","line":"多摩都市モノレール線","company":"多摩都市モノレール","code":"003371","lat":35.73189,"lng":139.41778},{"name":"砂川七番","line":"多摩都市モノレール線","company":"多摩都市モノレール","code":"003447","lat":35.7231,"lng":139.41811},{"name":"泉体育館","line":"多摩都市モノレール線","company":"多摩都市モノレール","code":"003476","lat":35.71856,"lng":139.41972},{"name":"立飛","line":"多摩都市モノレール線","company":"多摩都市モノレール","code":"003499","lat":35.71449,"lng":139.41727},{"name":"高松","line":"多摩都市モノレール線","company":"多摩都市モノレール","code":"003528","lat":35.71025,"lng":139.41347},{"name":"立川北","line":"多摩都市モノレール線","company":"多摩都市モノレール","code":"003617","lat":35.69908,"lng":139.41264},{"name":"立川南","line":"多摩都市モノレール線","company":"多摩都市モノレール","code":"003649","lat":35.69647,"lng":139.41274},{"name":"柴崎体育館","line":"多摩都市モノレール線","company":"多摩都市モノレール","code":"003697","lat":35.69006,"lng":139.4094},{"name":"甲州街道","line":"多摩都市モノレール線","company":"多摩都市モノレール","code":"003783","lat":35.67843,"lng":139.40885},{"name":"万願寺","line":"多摩都市モノレール線","company":"多摩都市モノレール","code":"003829","lat":35.67159,"lng":139.41962},{"name":"高幡不動","line":"多摩都市モノレール線","company":"多摩都市モノレール","code":"003910","lat":35.66095,"lng":139.41516},{"name":"程久保","line":"多摩都市モノレール線","company":"多摩都市モノレール","code":"003950","lat":35.65492,"lng":139.41057},{"name":"多摩動物公園","line":"多摩都市モノレール線","company":"多摩都市モノレール","code":"003983","lat":35.64821,"lng":139.40372},{"name":"中央大学・明星大学","line":"多摩都市モノレール線","company":"多摩都市モノレール","code":"004031","lat":35.64173,"lng":139.40908},{"name":"大塚・帝京大学","line":"多摩都市モノレール線","company":"多摩都市モノレール","code":"004051","lat":35.63666,"lng":139.41676},{"name":"松が谷","line":"多摩都市モノレール線","company":"多摩都市モノレール","code":"004077","lat":35.63147,"lng":139.42215},{"name":"多摩センター","line":"多摩都市モノレール線","company":"多摩都市モノレール","code":"004121","lat":35.62352,"lng":139.42267},{"name":"阿夫利神社","line":"大山鋼索線","company":"大山観光電鉄","code":"004732","lat":35.43167,"lng":139.2378},{"name":"大山寺","line":"大山鋼索線","company":"大山観光電鉄","code":"004743","lat":35.42963,"lng":139.24127},{"name":"大山ケーブル","line":"大山鋼索線","company":"大山観光電鉄","code":"004749","lat":35.42782,"lng":139.24473},{"name":"大月","line":"大月線","company":"富士山麓電気鉄道","code":"004171","lat":35.61287,"lng":138.94225},{"name":"上大月","line":"大月線","company":"富士山麓電気鉄道","code":"004183","lat":35.60961,"lng":138.93801},{"name":"田野倉","line":"大月線","company":"富士山麓電気鉄道","code":"004258","lat":35.59382,"lng":138.93117},{"name":"禾生","line":"大月線","company":"富士山麓電気鉄道","code":"004300","lat":35.57543,"lng":138.9295},{"name":"赤坂","line":"大月線","company":"富士山麓電気鉄道","code":"004320","lat":35.56629,"lng":138.91637},{"name":"都留市","line":"大月線","company":"富士山麓電気鉄道","code":"004344","lat":35.55768,"lng":138.90739},{"name":"谷村町","line":"大月線","company":"富士山麓電気鉄道","code":"004362","lat":35.55109,"lng":138.9048},{"name":"五井","line":"小湊鐵道線","company":"小湊鐵道","code":"004480","lat":35.51218,"lng":140.08849},{"name":"上総村上","line":"小湊鐵道線","company":"小湊鐵道","code":"004535","lat":35.49577,"lng":140.10066},{"name":"海士有木","line":"小湊鐵道線","company":"小湊鐵道","code":"004577","lat":35.48152,"lng":140.12466},{"name":"上総三又","line":"小湊鐵道線","company":"小湊鐵道","code":"004632","lat":35.46558,"lng":140.12684},{"name":"上総山田","line":"小湊鐵道線","company":"小湊鐵道","code":"004667","lat":35.45377,"lng":140.12606},{"name":"光風台","line":"小湊鐵道線","company":"小湊鐵道","code":"004713","lat":35.43919,"lng":140.11407},{"name":"馬立","line":"小湊鐵道線","company":"小湊鐵道","code":"004757","lat":35.42348,"lng":140.1149},{"name":"上総牛久","line":"小湊鐵道線","company":"小湊鐵道","code":"004826","lat":35.40011,"lng":140.14266},{"name":"上総川間","line":"小湊鐵道線","company":"小湊鐵道","code":"004867","lat":35.38809,"lng":140.15135},{"name":"上総鶴舞","line":"小湊鐵道線","company":"小湊鐵道","code":"004884","lat":35.3816,"lng":140.16477},{"name":"上総久保","line":"小湊鐵道線","company":"小湊鐵道","code":"004921","lat":35.3672,"lng":140.15415},{"name":"高滝","line":"小湊鐵道線","company":"小湊鐵道","code":"004963","lat":35.35335,"lng":140.15051},{"name":"里見","line":"小湊鐵道線","company":"小湊鐵道","code":"005002","lat":35.33694,"lng":140.14546},{"name":"飯給","line":"小湊鐵道線","company":"小湊鐵道","code":"005050","lat":35.32018,"lng":140.14257},{"name":"月崎","line":"小湊鐵道線","company":"小湊鐵道","code":"005108","lat":35.30189,"lng":140.13927},{"name":"上総大久保","line":"小湊鐵道線","company":"小湊鐵道","code":"005151","lat":35.28338,"lng":140.14551},{"name":"養老渓谷","line":"小湊鐵道線","company":"小湊鐵道","code":"005187","lat":35.2662,"lng":140.15975},{"name":"上総中野","line":"小湊鐵道線","company":"小湊鐵道","code":"005238","lat":35.24986,"lng":140.19998},{"name":"小田原","line":"鉄道線","company":"小田急箱根","code":"005216","lat":35.25707,"lng":139.15595},{"name":"強羅","line":"鉄道線","company":"小田急箱根","code":"005231","lat":35.25124,"lng":139.04816},{"name":"彫刻の森","line":"鉄道線","company":"小田急箱根","code":"005246","lat":35.24679,"lng":139.05039},{"name":"風祭","line":"鉄道線","company":"小田急箱根","code":"005248","lat":35.24617,"lng":139.12876},{"name":"箱根板橋","line":"鉄道線","company":"小田急箱根","code":"005250","lat":35.24525,"lng":139.14479},{"name":"宮ノ下","line":"鉄道線","company":"小田急箱根","code":"005254","lat":35.24223,"lng":139.06274},{"name":"入生田","line":"鉄道線","company":"小田急箱根","code":"005256","lat":35.24097,"lng":139.1214},{"name":"小涌谷","line":"鉄道線","company":"小田急箱根","code":"005258","lat":35.24049,"lng":139.05281},{"name":"大平台","line":"鉄道線","company":"小田急箱根","code":"005260","lat":35.23889,"lng":139.07421},{"name":"塔ノ沢","line":"鉄道線","company":"小田急箱根","code":"005269","lat":35.2344,"lng":139.0943},{"name":"箱根湯本","line":"鉄道線","company":"小田急箱根","code":"005271","lat":35.23374,"lng":139.10429},{"name":"強羅","line":"鋼索線","company":"小田急箱根","code":"005232","lat":35.25087,"lng":139.04826},{"name":"公園下","line":"鋼索線","company":"小田急箱根","code":"005237","lat":35.25019,"lng":139.04639},{"name":"公園上","line":"鋼索線","company":"小田急箱根","code":"005240","lat":35.24925,"lng":139.04365},{"name":"中強羅","line":"鋼索線","company":"小田急箱根","code":"005242","lat":35.24821,"lng":139.04067},{"name":"上強羅","line":"鋼索線","company":"小田急箱根","code":"005245","lat":35.24727,"lng":139.0381},{"name":"早雲山","line":"鋼索線","company":"小田急箱根","code":"005247","lat":35.24661,"lng":139.03622},{"name":"小田急永山","line":"多摩線","company":"小田急電鉄","code":"004090","lat":35.62959,"lng":139.44916},{"name":"小田急多摩センター","line":"多摩線","company":"小田急電鉄","code":"004118","lat":35.62527,"lng":139.42533},{"name":"はるひ野","line":"多摩線","company":"小田急電鉄","code":"004141","lat":35.6191,"lng":139.46423},{"name":"唐木田","line":"多摩線","company":"小田急電鉄","code":"004154","lat":35.61732,"lng":139.41218},{"name":"黒川","line":"多摩線","company":"小田急電鉄","code":"004168","lat":35.61275,"lng":139.47118},{"name":"栗平","line":"多摩線","company":"小田急電鉄","code":"004214","lat":35.60545,"lng":139.48185},{"name":"新百合ヶ丘","line":"多摩線","company":"小田急電鉄","code":"004228","lat":35.60306,"lng":139.50667},{"name":"五月台","line":"多摩線","company":"小田急電鉄","code":"004237","lat":35.6,"lng":139.49407},{"name":"新宿","line":"小田原線","company":"小田急電鉄","code":"003683","lat":35.69189,"lng":139.69971},{"name":"南新宿","line":"小田原線","company":"小田急電鉄","code":"003750","lat":35.68316,"lng":139.69817},{"name":"参宮橋","line":"小田原線","company":"小田急電鉄","code":"003778","lat":35.67813,"lng":139.69329},{"name":"代々木八幡","line":"小田原線","company":"小田急電鉄","code":"003837","lat":35.66945,"lng":139.68843},{"name":"代々木上原","line":"小田原線","company":"小田急電鉄","code":"003848","lat":35.66849,"lng":139.67877},{"name":"東北沢","line":"小田原線","company":"小田急電鉄","code":"003880","lat":35.66508,"lng":139.67254},{"name":"下北沢","line":"小田原線","company":"小田急電鉄","code":"003909","lat":35.66095,"lng":139.66667},{"name":"世田谷代田","line":"小田原線","company":"小田急電鉄","code":"003931","lat":35.65814,"lng":139.66076},{"name":"梅ヶ丘","line":"小田原線","company":"小田急電鉄","code":"003945","lat":35.65624,"lng":139.65434},{"name":"豪徳寺","line":"小田原線","company":"小田急電鉄","code":"003960","lat":35.65411,"lng":139.6481},{"name":"経堂","line":"小田原線","company":"小田急電鉄","code":"003970","lat":35.65151,"lng":139.63778},{"name":"千歳船橋","line":"小田原線","company":"小田急電鉄","code":"003988","lat":35.64791,"lng":139.62533},{"name":"祖師ヶ谷大蔵","line":"小田原線","company":"小田急電鉄","code":"004024","lat":35.64302,"lng":139.60895},{"name":"成城学園前","line":"小田原線","company":"小田急電鉄","code":"004036","lat":35.63981,"lng":139.59796},{"name":"喜多見","line":"小田原線","company":"小田急電鉄","code":"004053","lat":35.63613,"lng":139.58554},{"name":"狛江","line":"小田原線","company":"小田急電鉄","code":"004076","lat":35.63162,"lng":139.57669},{"name":"和泉多摩川","line":"小田原線","company":"小田急電鉄","code":"004105","lat":35.6268,"lng":139.57331},{"name":"登戸","line":"小田原線","company":"小田急電鉄","code":"004130","lat":35.62007,"lng":139.56878},{"name":"向ヶ丘遊園","line":"小田原線","company":"小田急電鉄","code":"004150","lat":35.61683,"lng":139.56355},{"name":"生田","line":"小田原線","company":"小田急電鉄","code":"004159","lat":35.61482,"lng":139.54065},{"name":"読売ランド前","line":"小田原線","company":"小田急電鉄","code":"004160","lat":35.61484,"lng":139.52706},{"name":"百合ヶ丘","line":"小田原線","company":"小田急電鉄","code":"004185","lat":35.60866,"lng":139.51514},{"name":"新百合ヶ丘","line":"小田原線","company":"小田急電鉄","code":"004227","lat":35.60306,"lng":139.50667},{"name":"柿生","line":"小田原線","company":"小田急電鉄","code":"004263","lat":35.58891,"lng":139.49711},{"name":"鶴川","line":"小田原線","company":"小田急電鉄","code":"004278","lat":35.58332,"lng":139.48287},{"name":"玉川学園前","line":"小田原線","company":"小田急電鉄","code":"004324","lat":35.56428,"lng":139.46393},{"name":"町田","line":"小田原線","company":"小田急電鉄","code":"004387","lat":35.54471,"lng":139.44575},{"name":"相模大野","line":"小田原線","company":"小田急電鉄","code":"004427","lat":35.53329,"lng":139.43879},{"name":"小田急相模原","line":"小田原線","company":"小田急電鉄","code":"004470","lat":35.51625,"lng":139.42363},{"name":"相武台前","line":"小田原線","company":"小田急電鉄","code":"004525","lat":35.49995,"lng":139.40909},{"name":"座間","line":"小田原線","company":"小田急電鉄","code":"004584","lat":35.48173,"lng":139.39986},{"name":"海老名","line":"小田原線","company":"小田急電鉄","code":"004672","lat":35.45355,"lng":139.39182},{"name":"厚木","line":"小田原線","company":"小田急電鉄","code":"004703","lat":35.44297,"lng":139.37752},{"name":"本厚木","line":"小田原線","company":"小田急電鉄","code":"004715","lat":35.43856,"lng":139.36355},{"name":"愛甲石田","line":"小田原線","company":"小田急電鉄","code":"004771","lat":35.41817,"lng":139.34465},{"name":"伊勢原","line":"小田原線","company":"小田急電鉄","code":"004844","lat":35.39638,"lng":139.31439},{"name":"鶴巻温泉","line":"小田原線","company":"小田急電鉄","code":"004885","lat":35.38099,"lng":139.2779},{"name":"渋沢","line":"小田原線","company":"小田急電鉄","code":"004906","lat":35.3739,"lng":139.1856},{"name":"東海大学前","line":"小田原線","company":"小田急電鉄","code":"004909","lat":35.37317,"lng":139.27125},{"name":"秦野","line":"小田原線","company":"小田急電鉄","code":"004913","lat":35.36956,"lng":139.22685},{"name":"新松田","line":"小田原線","company":"小田急電鉄","code":"004981","lat":35.34432,"lng":139.13878},{"name":"開成","line":"小田原線","company":"小田急電鉄","code":"005037","lat":35.32681,"lng":139.13567},{"name":"栢山","line":"小田原線","company":"小田急電鉄","code":"005088","lat":35.31096,"lng":139.14252},{"name":"富水","line":"小田原線","company":"小田急電鉄","code":"005123","lat":35.2974,"lng":139.14491},{"name":"螢田","line":"小田原線","company":"小田急電鉄","code":"005146","lat":35.28547,"lng":139.15154},{"name":"足柄","line":"小田原線","company":"小田急電鉄","code":"005178","lat":35.27212,"lng":139.15447},{"name":"小田原","line":"小田原線","company":"小田急電鉄","code":"005215","lat":35.25707,"lng":139.15595},{"name":"相模大野","line":"江ノ島線","company":"小田急電鉄","code":"004426","lat":35.53111,"lng":139.43698},{"name":"東林間","line":"江ノ島線","company":"小田急電鉄","code":"004457","lat":35.51938,"lng":139.43948},{"name":"中央林間","line":"江ノ島線","company":"小田急電鉄","code":"004498","lat":35.50738,"lng":139.44412},{"name":"南林間","line":"江ノ島線","company":"小田急電鉄","code":"004537","lat":35.49499,"lng":139.44832},{"name":"鶴間","line":"江ノ島線","company":"小田急電鉄","code":"004549","lat":35.48991,"lng":139.45098},{"name":"大和","line":"江ノ島線","company":"小田急電鉄","code":"004618","lat":35.46895,"lng":139.46193},{"name":"桜ヶ丘","line":"江ノ島線","company":"小田急電鉄","code":"004676","lat":35.45,"lng":139.4657},{"name":"高座渋谷","line":"江ノ島線","company":"小田急電鉄","code":"004729","lat":35.43159,"lng":139.4647},{"name":"長後","line":"江ノ島線","company":"小田急電鉄","code":"004782","lat":35.4128,"lng":139.46538},{"name":"湘南台","line":"江ノ島線","company":"小田急電鉄","code":"004840","lat":35.39701,"lng":139.46632},{"name":"六会日大前","line":"江ノ島線","company":"小田急電鉄","code":"004878","lat":35.38412,"lng":139.47061},{"name":"善行","line":"江ノ島線","company":"小田急電鉄","code":"004937","lat":35.36293,"lng":139.47324},{"name":"藤沢本町","line":"江ノ島線","company":"小田急電鉄","code":"004973","lat":35.34854,"lng":139.47566},{"name":"藤沢","line":"江ノ島線","company":"小田急電鉄","code":"004997","lat":35.33858,"lng":139.4864},{"name":"本鵠沼","line":"江ノ島線","company":"小田急電鉄","code":"005022","lat":35.33134,"lng":139.47561},{"name":"鵠沼海岸","line":"江ノ島線","company":"小田急電鉄","code":"005049","lat":35.3204,"lng":139.47144},{"name":"片瀬江ノ島","line":"江ノ島線","company":"小田急電鉄","code":"005090","lat":35.30887,"lng":139.4835},{"name":"中学校","line":"ユーカリが丘線","company":"山万","code":"003316","lat":35.74046,"lng":140.14854},{"name":"女子大","line":"ユーカリが丘線","company":"山万","code":"003326","lat":35.73788,"lng":140.15541},{"name":"井野","line":"ユーカリが丘線","company":"山万","code":"003366","lat":35.73318,"lng":140.14844},{"name":"公園","line":"ユーカリが丘線","company":"山万","code":"003386","lat":35.73109,"lng":140.15373},{"name":"地区センター","line":"ユーカリが丘線","company":"山万","code":"003429","lat":35.72651,"lng":140.15511},{"name":"ユーカリが丘","line":"ユーカリが丘線","company":"山万","code":"003452","lat":35.72252,"lng":140.15697},{"name":"滝本","line":"ケーブルカー","company":"御岳登山鉄道","code":"003099","lat":35.79621,"lng":139.16172},{"name":"御岳山","line":"ケーブルカー","company":"御岳登山鉄道","code":"003114","lat":35.78977,"lng":139.15399},{"name":"常盤平","line":"新京成線","company":"新京成電鉄","code":"003085","lat":35.80299,"lng":139.94889},{"name":"五香","line":"新京成線","company":"新京成電鉄","code":"003095","lat":35.79778,"lng":139.96556},{"name":"八柱","line":"新京成線","company":"新京成電鉄","code":"003105","lat":35.79107,"lng":139.93707},{"name":"松戸新田","line":"新京成線","company":"新京成電鉄","code":"003109","lat":35.79074,"lng":139.92173},{"name":"元山","line":"新京成線","company":"新京成電鉄","code":"003111","lat":35.79065,"lng":139.97525},{"name":"上本郷","line":"新京成線","company":"新京成電鉄","code":"003115","lat":35.78915,"lng":139.9155},{"name":"みのり台","line":"新京成線","company":"新京成電鉄","code":"003116","lat":35.78947,"lng":139.92815},{"name":"松戸","line":"新京成線","company":"新京成電鉄","code":"003138","lat":35.78349,"lng":139.90039},{"name":"くぬぎ山","line":"新京成線","company":"新京成電鉄","code":"003143","lat":35.78279,"lng":139.97582},{"name":"新鎌ヶ谷","line":"新京成線","company":"新京成電鉄","code":"003149","lat":35.77941,"lng":139.99926},{"name":"北初富","line":"新京成線","company":"新京成電鉄","code":"003164","lat":35.77639,"lng":139.98924},{"name":"初富","line":"新京成線","company":"新京成電鉄","code":"003178","lat":35.77148,"lng":140.00026},{"name":"鎌ヶ谷大仏","line":"新京成線","company":"新京成電鉄","code":"003227","lat":35.75754,"lng":140.0147},{"name":"二和向台","line":"新京成線","company":"新京成電鉄","code":"003238","lat":35.75365,"lng":140.02431},{"name":"三咲","line":"新京成線","company":"新京成電鉄","code":"003265","lat":35.74964,"lng":140.02845},{"name":"滝不動","line":"新京成線","company":"新京成電鉄","code":"003327","lat":35.73844,"lng":140.02665},{"name":"高根公団","line":"新京成線","company":"新京成電鉄","code":"003388","lat":35.73084,"lng":140.02886},{"name":"高根木戸","line":"新京成線","company":"新京成電鉄","code":"003425","lat":35.72697,"lng":140.03438},{"name":"北習志野","line":"新京成線","company":"新京成電鉄","code":"003463","lat":35.72164,"lng":140.0418},{"name":"習志野","line":"新京成線","company":"新京成電鉄","code":"003493","lat":35.71586,"lng":140.04295},{"name":"薬園台","line":"新京成線","company":"新京成電鉄","code":"003535","lat":35.70943,"lng":140.03708},{"name":"前原","line":"新京成線","company":"新京成電鉄","code":"003603","lat":35.70096,"lng":140.02802},{"name":"新津田沼","line":"新京成線","company":"新京成電鉄","code":"003694","lat":35.69046,"lng":140.02298},{"name":"京成津田沼","line":"新京成線","company":"新京成電鉄","code":"003747","lat":35.68349,"lng":140.02558},{"name":"モノレール浜松町","line":"東京モノレール羽田線","company":"東京モノレール","code":"003946","lat":35.65514,"lng":139.75661},{"name":"天王洲アイル","line":"東京モノレール羽田線","company":"東京モノレール","code":"004123","lat":35.62328,"lng":139.75065},{"name":"大井競馬場前","line":"東京モノレール羽田線","company":"東京モノレール","code":"004251","lat":35.59451,"lng":139.74716},{"name":"流通センター","line":"東京モノレール羽田線","company":"東京モノレール","code":"004285","lat":35.58101,"lng":139.74937},{"name":"昭和島","line":"東京モノレール羽田線","company":"東京モノレール","code":"004312","lat":35.57002,"lng":139.74976},{"name":"整備場","line":"東京モノレール羽田線","company":"東京モノレール","code":"004348","lat":35.55466,"lng":139.75336},{"name":"羽田空港第2ターミナル","line":"東京モノレール羽田線","company":"東京モノレール","code":"004361","lat":35.55143,"lng":139.78778},{"name":"羽田空港第1ターミナル","line":"東京モノレール羽田線","company":"東京モノレール","code":"004372","lat":35.54977,"lng":139.78417},{"name":"天空橋","line":"東京モノレール羽田線","company":"東京モノレール","code":"004373","lat":35.54753,"lng":139.75491},{"name":"羽田空港第3ターミナル","line":"東京モノレール羽田線","company":"東京モノレール","code":"004388","lat":35.543408,"lng":139.768914},{"name":"新整備場","line":"東京モノレール羽田線","company":"東京モノレール","code":"004393","lat":35.54348,"lng":139.78714},{"name":"押上","line":"11号線半蔵門線","company":"東京地下鉄","code":"003540","lat":35.70668,"lng":139.81415},{"name":"錦糸町","line":"11号線半蔵門線","company":"東京地下鉄","code":"003639","lat":35.69861,"lng":139.81487},{"name":"神保町","line":"11号線半蔵門線","company":"東京地下鉄","code":"003652","lat":35.695949,"lng":139.756854},{"name":"九段下","line":"11号線半蔵門線","company":"東京地下鉄","code":"003658","lat":35.69569,"lng":139.75215},{"name":"住吉","line":"11号線半蔵門線","company":"東京地下鉄","code":"003705","lat":35.6879,"lng":139.81576},{"name":"大手町","line":"11号線半蔵門線","company":"東京地下鉄","code":"003719","lat":35.68692,"lng":139.76377},{"name":"半蔵門","line":"11号線半蔵門線","company":"東京地下鉄","code":"003729","lat":35.68445,"lng":139.74158},{"name":"三越前","line":"11号線半蔵門線","company":"東京地下鉄","code":"003735","lat":35.68523,"lng":139.77145},{"name":"水天宮前","line":"11号線半蔵門線","company":"東京地下鉄","code":"003753","lat":35.68231,"lng":139.78576},{"name":"清澄白河","line":"11号線半蔵門線","company":"東京地下鉄","code":"003757","lat":35.6822,"lng":139.80141},{"name":"永田町","line":"11号線半蔵門線","company":"東京地下鉄","code":"003781","lat":35.6783,"lng":139.73774},{"name":"青山一丁目","line":"11号線半蔵門線","company":"東京地下鉄","code":"003812","lat":35.67264,"lng":139.72311},{"name":"表参道","line":"11号線半蔵門線","company":"東京地下鉄","code":"003883","lat":35.66441,"lng":139.71171},{"name":"渋谷","line":"11号線半蔵門線","company":"東京地下鉄","code":"003922","lat":35.65945,"lng":139.7021},{"name":"小竹向原","line":"13号線副都心線","company":"東京地下鉄","code":"003294","lat":35.74388,"lng":139.6785},{"name":"千川","line":"13号線副都心線","company":"東京地下鉄","code":"003324","lat":35.73884,"lng":139.68851},{"name":"要町","line":"13号線副都心線","company":"東京地下鉄","code":"003361","lat":35.73342,"lng":139.69736},{"name":"池袋","line":"13号線副都心線","company":"東京地下鉄","code":"003379","lat":35.73178,"lng":139.70655},{"name":"雑司が谷","line":"13号線副都心線","company":"東京地下鉄","code":"003471","lat":35.72139,"lng":139.71558},{"name":"西早稲田","line":"13号線副都心線","company":"東京地下鉄","code":"003544","lat":35.70892,"lng":139.70933},{"name":"東新宿","line":"13号線副都心線","company":"東京地下鉄","code":"003612","lat":35.70187,"lng":139.70823},{"name":"新宿三丁目","line":"13号線副都心線","company":"東京地下鉄","code":"003689","lat":35.6939,"lng":139.70673},{"name":"北参道","line":"13号線副都心線","company":"東京地下鉄","code":"003780","lat":35.67947,"lng":139.70473},{"name":"明治神宮前","line":"13号線副都心線","company":"東京地下鉄","code":"003857","lat":35.66907,"lng":139.70588},{"name":"渋谷","line":"13号線副都心線","company":"東京地下鉄","code":"003925","lat":35.659955,"lng":139.702303},{"name":"北千住","line":"2号線日比谷線","company":"東京地下鉄","code":"003257","lat":35.74855,"lng":139.80518},{"name":"南千住","line":"2号線日比谷線","company":"東京地下鉄","code":"003369","lat":35.73288,"lng":139.79924},{"name":"三ノ輪","line":"2号線日比谷線","company":"東京地下鉄","code":"003399","lat":35.7299,"lng":139.79182},{"name":"入谷","line":"2号線日比谷線","company":"東京地下鉄","code":"003469","lat":35.72131,"lng":139.78504},{"name":"上野","line":"2号線日比谷線","company":"東京地下鉄","code":"003517","lat":35.71199,"lng":139.77764},{"name":"仲御徒町","line":"2号線日比谷線","company":"東京地下鉄","code":"003560","lat":35.7074,"lng":139.77626},{"name":"秋葉原","line":"2号線日比谷線","company":"東京地下鉄","code":"003629","lat":35.69719,"lng":139.7755},{"name":"小伝馬町","line":"2号線日比谷線","company":"東京地下鉄","code":"003692","lat":35.69112,"lng":139.77817},{"name":"人形町","line":"2号線日比谷線","company":"東京地下鉄","code":"003722","lat":35.6869,"lng":139.78179},{"name":"茅場町","line":"2号線日比谷線","company":"東京地下鉄","code":"003776","lat":35.67976,"lng":139.78005},{"name":"八丁堀","line":"2号線日比谷線","company":"東京地下鉄","code":"003797","lat":35.67606,"lng":139.77775},{"name":"日比谷","line":"2号線日比谷線","company":"東京地下鉄","code":"003802","lat":35.67476,"lng":139.75989},{"name":"霞ヶ関","line":"2号線日比谷線","company":"東京地下鉄","code":"003805","lat":35.67452,"lng":139.75144},{"name":"銀座","line":"2号線日比谷線","company":"東京地下鉄","code":"003823","lat":35.67155,"lng":139.76464},{"name":"東銀座","line":"2号線日比谷線","company":"東京地下鉄","code":"003843","lat":35.66977,"lng":139.76691},{"name":"築地","line":"2号線日比谷線","company":"東京地下鉄","code":"003860","lat":35.66854,"lng":139.77326},{"name":"虎ノ門ヒルズ","line":"2号線日比谷線","company":"東京地下鉄","code":"003866","lat":35.66785,"lng":139.748},{"name":"六本木","line":"2号線日比谷線","company":"東京地下鉄","code":"003897","lat":35.66235,"lng":139.73025},{"name":"神谷町","line":"2号線日比谷線","company":"東京地下鉄","code":"003900","lat":35.66206,"lng":139.74419},{"name":"広尾","line":"2号線日比谷線","company":"東京地下鉄","code":"003969","lat":35.6506,"lng":139.72226},{"name":"恵比寿","line":"2号線日比谷線","company":"東京地下鉄","code":"003991","lat":35.64646,"lng":139.70808},{"name":"中目黒","line":"2号線日比谷線","company":"東京地下鉄","code":"004014","lat":35.64352,"lng":139.69815},{"name":"上野","line":"3号線銀座線","company":"東京地下鉄","code":"003515","lat":35.71154,"lng":139.77455},{"name":"稲荷町","line":"3号線銀座線","company":"東京地下鉄","code":"003519","lat":35.71126,"lng":139.78291},{"name":"浅草","line":"3号線銀座線","company":"東京地下鉄","code":"003522","lat":35.71107,"lng":139.79803},{"name":"田原町","line":"3号線銀座線","company":"東京地下鉄","code":"003530","lat":35.70981,"lng":139.79081},{"name":"上野広小路","line":"3号線銀座線","company":"東京地下鉄","code":"003545","lat":35.70838,"lng":139.77315},{"name":"末広町","line":"3号線銀座線","company":"東京地下鉄","code":"003586","lat":35.70319,"lng":139.77181},{"name":"神田","line":"3号線銀座線","company":"東京地下鉄","code":"003666","lat":35.69329,"lng":139.77107},{"name":"三越前","line":"3号線銀座線","company":"東京地下鉄","code":"003716","lat":35.68671,"lng":139.77378},{"name":"日本橋","line":"3号線銀座線","company":"東京地下鉄","code":"003759","lat":35.68156,"lng":139.77313},{"name":"赤坂見附","line":"3号線銀座線","company":"東京地下鉄","code":"003788","lat":35.67621,"lng":139.73773},{"name":"京橋","line":"3号線銀座線","company":"東京地下鉄","code":"003792","lat":35.67619,"lng":139.7698},{"name":"青山一丁目","line":"3号線銀座線","company":"東京地下鉄","code":"003817","lat":35.67247,"lng":139.72318},{"name":"溜池山王","line":"3号線銀座線","company":"東京地下鉄","code":"003826","lat":35.67187,"lng":139.74139},{"name":"銀座","line":"3号線銀座線","company":"東京地下鉄","code":"003827","lat":35.67195,"lng":139.76583},{"name":"外苑前","line":"3号線銀座線","company":"東京地下鉄","code":"003834","lat":35.67016,"lng":139.71725},{"name":"虎ノ門","line":"3号線銀座線","company":"東京地下鉄","code":"003835","lat":35.67,"lng":139.75056},{"name":"新橋","line":"3号線銀座線","company":"東京地下鉄","code":"003864","lat":35.66709,"lng":139.75935},{"name":"表参道","line":"3号線銀座線","company":"東京地下鉄","code":"003885","lat":35.66431,"lng":139.7118},{"name":"渋谷","line":"3号線銀座線","company":"東京地下鉄","code":"003924","lat":35.658869,"lng":139.701968},{"name":"池袋","line":"4号線丸ノ内線","company":"東京地下鉄","code":"003389","lat":35.73061,"lng":139.71034},{"name":"新大塚","line":"4号線丸ノ内線","company":"東京地下鉄","code":"003431","lat":35.72652,"lng":139.7288},{"name":"茗荷谷","line":"4号線丸ノ内線","company":"東京地下鉄","code":"003484","lat":35.71758,"lng":139.73649},{"name":"後楽園","line":"4号線丸ノ内線","company":"東京地下鉄","code":"003550","lat":35.70734,"lng":139.75164},{"name":"本郷三丁目","line":"4号線丸ノ内線","company":"東京地下鉄","code":"003559","lat":35.70728,"lng":139.7595},{"name":"荻窪","line":"4号線丸ノ内線","company":"東京地下鉄","code":"003577","lat":35.70419,"lng":139.62077},{"name":"御茶ノ水","line":"4号線丸ノ内線","company":"東京地下鉄","code":"003605","lat":35.70069,"lng":139.76355},{"name":"南阿佐ヶ谷","line":"4号線丸ノ内線","company":"東京地下鉄","code":"003619","lat":35.69918,"lng":139.63624},{"name":"東高円寺","line":"4号線丸ノ内線","company":"東京地下鉄","code":"003628","lat":35.69787,"lng":139.659},{"name":"新高円寺","line":"4号線丸ノ内線","company":"東京地下鉄","code":"003632","lat":35.69788,"lng":139.64926},{"name":"新中野","line":"4号線丸ノ内線","company":"東京地下鉄","code":"003638","lat":35.6975,"lng":139.67029},{"name":"中野坂上","line":"4号線丸ノ内線","company":"東京地下鉄","code":"003643","lat":35.69701,"lng":139.68284},{"name":"淡路町","line":"4号線丸ノ内線","company":"東京地下鉄","code":"003661","lat":35.69535,"lng":139.76746},{"name":"西新宿","line":"4号線丸ノ内線","company":"東京地下鉄","code":"003662","lat":35.69428,"lng":139.6932},{"name":"新宿","line":"4号線丸ノ内線","company":"東京地下鉄","code":"003672","lat":35.69235,"lng":139.7013},{"name":"新宿三丁目","line":"4号線丸ノ内線","company":"東京地下鉄","code":"003684","lat":35.69087,"lng":139.70489},{"name":"新宿御苑前","line":"4号線丸ノ内線","company":"東京地下鉄","code":"003707","lat":35.68834,"lng":139.71185},{"name":"四谷三丁目","line":"4号線丸ノ内線","company":"東京地下鉄","code":"003713","lat":35.68793,"lng":139.72037},{"name":"大手町","line":"4号線丸ノ内線","company":"東京地下鉄","code":"003717","lat":35.68736,"lng":139.76633},{"name":"四ツ谷","line":"4号線丸ノ内線","company":"東京地下鉄","code":"003740","lat":35.68326,"lng":139.73009},{"name":"東京","line":"4号線丸ノ内線","company":"東京地下鉄","code":"003758","lat":35.68273,"lng":139.765},{"name":"赤坂見附","line":"4号線丸ノ内線","company":"東京地下鉄","code":"003789","lat":35.67621,"lng":139.73773},{"name":"国会議事堂前","line":"4号線丸ノ内線","company":"東京地下鉄","code":"003799","lat":35.67429,"lng":139.74455},{"name":"霞ヶ関","line":"4号線丸ノ内線","company":"東京地下鉄","code":"003803","lat":35.67391,"lng":139.75346},{"name":"銀座","line":"4号線丸ノ内線","company":"東京地下鉄","code":"003809","lat":35.67358,"lng":139.76443},{"name":"中野坂上","line":"4号線丸ノ内線分岐線","company":"東京地下鉄","code":"003644","lat":35.69701,"lng":139.68284},{"name":"中野新橋","line":"4号線丸ノ内線分岐線","company":"東京地下鉄","code":"003679","lat":35.69207,"lng":139.67448},{"name":"中野富士見町","line":"4号線丸ノ内線分岐線","company":"東京地下鉄","code":"003688","lat":35.69089,"lng":139.6689},{"name":"方南町","line":"4号線丸ノ内線分岐線","company":"東京地下鉄","code":"003751","lat":35.68367,"lng":139.65867},{"name":"高田馬場","line":"5号線東西線","company":"東京地下鉄","code":"003506","lat":35.7128,"lng":139.70603},{"name":"落合","line":"5号線東西線","company":"東京地下鉄","code":"003523","lat":35.7109,"lng":139.68706},{"name":"西船橋","line":"5号線東西線","company":"東京地下鉄","code":"003551","lat":35.70671,"lng":139.95979},{"name":"中野","line":"5号線東西線","company":"東京地下鉄","code":"003569","lat":35.70579,"lng":139.66688},{"name":"早稲田","line":"5号線東西線","company":"東京地下鉄","code":"003570","lat":35.70558,"lng":139.72333},{"name":"神楽坂","line":"5号線東西線","company":"東京地下鉄","code":"003578","lat":35.70367,"lng":139.73566},{"name":"原木中山","line":"5号線東西線","company":"東京地下鉄","code":"003582","lat":35.70264,"lng":139.94123},{"name":"飯田橋","line":"5号線東西線","company":"東京地下鉄","code":"003596","lat":35.70182,"lng":139.74579},{"name":"九段下","line":"5号線東西線","company":"東京地下鉄","code":"003650","lat":35.69698,"lng":139.75101},{"name":"妙典","line":"5号線東西線","company":"東京地下鉄","code":"003686","lat":35.69029,"lng":139.92343},{"name":"竹橋","line":"5号線東西線","company":"東京地下鉄","code":"003691","lat":35.69028,"lng":139.75852},{"name":"大手町","line":"5号線東西線","company":"東京地下鉄","code":"003738","lat":35.68498,"lng":139.76473},{"name":"行徳","line":"5号線東西線","company":"東京地下鉄","code":"003755","lat":35.68194,"lng":139.91336},{"name":"日本橋","line":"5号線東西線","company":"東京地下鉄","code":"003756","lat":35.68277,"lng":139.77309},{"name":"茅場町","line":"5号線東西線","company":"東京地下鉄","code":"003773","lat":35.68061,"lng":139.77858},{"name":"南行徳","line":"5号線東西線","company":"東京地下鉄","code":"003819","lat":35.67339,"lng":139.90306},{"name":"門前仲町","line":"5号線東西線","company":"東京地下鉄","code":"003824","lat":35.67146,"lng":139.7971},{"name":"東陽町","line":"5号線東西線","company":"東京地下鉄","code":"003839","lat":35.66966,"lng":139.81892},{"name":"木場","line":"5号線東西線","company":"東京地下鉄","code":"003840","lat":35.66938,"lng":139.80591},{"name":"南砂町","line":"5号線東西線","company":"東京地下鉄","code":"003854","lat":35.66881,"lng":139.83048},{"name":"浦安","line":"5号線東西線","company":"東京地下鉄","code":"003875","lat":35.66642,"lng":139.89427},{"name":"西葛西","line":"5号線東西線","company":"東京地下鉄","code":"003890","lat":35.66471,"lng":139.85786},{"name":"葛西","line":"5号線東西線","company":"東京地下鉄","code":"003894","lat":35.66354,"lng":139.87396},{"name":"赤羽岩淵","line":"7号線南北線","company":"東京地下鉄","code":"003141","lat":35.7831,"lng":139.72346},{"name":"志茂","line":"7号線南北線","company":"東京地下鉄","code":"003153","lat":35.77728,"lng":139.73303},{"name":"王子神谷","line":"7号線南北線","company":"東京地下鉄","code":"003207","lat":35.76418,"lng":139.73597},{"name":"王子","line":"7号線南北線","company":"東京地下鉄","code":"003236","lat":35.75355,"lng":139.73779},{"name":"西ヶ原","line":"7号線南北線","company":"東京地下鉄","code":"003279","lat":35.74557,"lng":139.74263},{"name":"駒込","line":"7号線南北線","company":"東京地下鉄","code":"003348","lat":35.73648,"lng":139.7466},{"name":"本駒込","line":"7号線南北線","company":"東京地下鉄","code":"003441","lat":35.72517,"lng":139.75366},{"name":"東大前","line":"7号線南北線","company":"東京地下鉄","code":"003481","lat":35.71893,"lng":139.7574},{"name":"後楽園","line":"7号線南北線","company":"東京地下鉄","code":"003542","lat":35.70928,"lng":139.7518},{"name":"飯田橋","line":"7号線南北線","company":"東京地下鉄","code":"003595","lat":35.70262,"lng":139.74454},{"name":"市ヶ谷","line":"7号線南北線","company":"東京地下鉄","code":"003670","lat":35.69417,"lng":139.73766},{"name":"四ツ谷","line":"7号線南北線","company":"東京地下鉄","code":"003723","lat":35.68712,"lng":139.72999},{"name":"永田町","line":"7号線南北線","company":"東京地下鉄","code":"003782","lat":35.67878,"lng":139.73822},{"name":"溜池山王","line":"7号線南北線","company":"東京地下鉄","code":"003810","lat":35.67443,"lng":139.74133},{"name":"六本木一丁目","line":"7号線南北線","company":"東京地下鉄","code":"003884","lat":35.66579,"lng":139.73902},{"name":"麻布十番","line":"7号線南北線","company":"東京地下鉄","code":"003955","lat":35.65554,"lng":139.73715},{"name":"白金高輪","line":"7号線南北線","company":"東京地下鉄","code":"004026","lat":35.64385,"lng":139.73469},{"name":"白金台","line":"7号線南北線","company":"東京地下鉄","code":"004045","lat":35.63814,"lng":139.72671},{"name":"目黒","line":"7号線南北線","company":"東京地下鉄","code":"004073","lat":35.6332,"lng":139.71542},{"name":"和光市","line":"8号線有楽町線","company":"東京地下鉄","code":"003123","lat":35.78877,"lng":139.61182},{"name":"地下鉄成増","line":"8号線有楽町線","company":"東京地下鉄","code":"003163","lat":35.776,"lng":139.63258},{"name":"地下鉄赤塚","line":"8号線有楽町線","company":"東京地下鉄","code":"003186","lat":35.76909,"lng":139.64552},{"name":"平和台","line":"8号線有楽町線","company":"東京地下鉄","code":"003228","lat":35.75697,"lng":139.65526},{"name":"氷川台","line":"8号線有楽町線","company":"東京地下鉄","code":"003261","lat":35.75005,"lng":139.6645},{"name":"小竹向原","line":"8号線有楽町線","company":"東京地下鉄","code":"003295","lat":35.74388,"lng":139.6785},{"name":"千川","line":"8号線有楽町線","company":"東京地下鉄","code":"003325","lat":35.73884,"lng":139.68851},{"name":"要町","line":"8号線有楽町線","company":"東京地下鉄","code":"003362","lat":35.73342,"lng":139.69736},{"name":"池袋","line":"8号線有楽町線","company":"東京地下鉄","code":"003400","lat":35.72954,"lng":139.7098},{"name":"東池袋","line":"8号線有楽町線","company":"東京地下鉄","code":"003432","lat":35.72659,"lng":139.71787},{"name":"護国寺","line":"8号線有楽町線","company":"東京地下鉄","code":"003474","lat":35.72003,"lng":139.72705},{"name":"江戸川橋","line":"8号線有楽町線","company":"東京地下鉄","code":"003534","lat":35.70964,"lng":139.73315},{"name":"飯田橋","line":"8号線有楽町線","company":"東京地下鉄","code":"003598","lat":35.70231,"lng":139.74389},{"name":"市ヶ谷","line":"8号線有楽町線","company":"東京地下鉄","code":"003671","lat":35.69367,"lng":139.73763},{"name":"麹町","line":"8号線有楽町線","company":"東京地下鉄","code":"003737","lat":35.6856,"lng":139.73699},{"name":"永田町","line":"8号線有楽町線","company":"東京地下鉄","code":"003784","lat":35.67845,"lng":139.74068},{"name":"桜田門","line":"8号線有楽町線","company":"東京地下鉄","code":"003787","lat":35.67772,"lng":139.75296},{"name":"有楽町","line":"8号線有楽町線","company":"東京地下鉄","code":"003795","lat":35.67623,"lng":139.76108},{"name":"銀座一丁目","line":"8号線有楽町線","company":"東京地下鉄","code":"003801","lat":35.67508,"lng":139.76591},{"name":"新富町","line":"8号線有楽町線","company":"東京地下鉄","code":"003833","lat":35.67016,"lng":139.77451},{"name":"月島","line":"8号線有楽町線","company":"東京地下鉄","code":"003889","lat":35.66522,"lng":139.78386},{"name":"豊洲","line":"8号線有楽町線","company":"東京地下鉄","code":"003951","lat":35.65438,"lng":139.79672},{"name":"新木場","line":"8号線有楽町線","company":"東京地下鉄","code":"003998","lat":35.64564,"lng":139.82535},{"name":"辰巳","line":"8号線有楽町線","company":"東京地下鉄","code":"003999","lat":35.64531,"lng":139.81103},{"name":"北綾瀬","line":"9号線千代田線","company":"東京地下鉄","code":"003162","lat":35.77725,"lng":139.83211},{"name":"綾瀬","line":"9号線千代田線","company":"東京地下鉄","code":"003214","lat":35.76241,"lng":139.82614},{"name":"北千住","line":"9号線千代田線","company":"東京地下鉄","code":"003264","lat":35.75002,"lng":139.8046},{"name":"町屋","line":"9号線千代田線","company":"東京地下鉄","code":"003304","lat":35.74118,"lng":139.77946},{"name":"西日暮里","line":"9号線千代田線","company":"東京地下鉄","code":"003368","lat":35.73281,"lng":139.76785},{"name":"千駄木","line":"9号線千代田線","company":"東京地下鉄","code":"003434","lat":35.7266,"lng":139.76356},{"name":"根津","line":"9号線千代田線","company":"東京地下鉄","code":"003483","lat":35.7179,"lng":139.76517},{"name":"湯島","line":"9号線千代田線","company":"東京地下鉄","code":"003558","lat":35.70779,"lng":139.77002},{"name":"新御茶ノ水","line":"9号線千代田線","company":"東京地下鉄","code":"003645","lat":35.69759,"lng":139.76576},{"name":"大手町","line":"9号線千代田線","company":"東京地下鉄","code":"003730","lat":35.68613,"lng":139.76355},{"name":"二重橋前","line":"9号線千代田線","company":"東京地下鉄","code":"003772","lat":35.68145,"lng":139.7621},{"name":"日比谷","line":"9号線千代田線","company":"東京地下鉄","code":"003804","lat":35.67469,"lng":139.7595},{"name":"国会議事堂前","line":"9号線千代田線","company":"東京地下鉄","code":"003807","lat":35.67386,"lng":139.74458},{"name":"霞ヶ関","line":"9号線千代田線","company":"東京地下鉄","code":"003820","lat":35.67223,"lng":139.7526},{"name":"赤坂","line":"9号線千代田線","company":"東京地下鉄","code":"003822","lat":35.67267,"lng":139.73711},{"name":"明治神宮前","line":"9号線千代田線","company":"東京地下鉄","code":"003844","lat":35.66949,"lng":139.70307},{"name":"代々木公園","line":"9号線千代田線","company":"東京地下鉄","code":"003845","lat":35.66926,"lng":139.68868},{"name":"代々木上原","line":"9号線千代田線","company":"東京地下鉄","code":"003847","lat":35.66849,"lng":139.67877},{"name":"乃木坂","line":"9号線千代田線","company":"東京地下鉄","code":"003868","lat":35.6673,"lng":139.72701},{"name":"表参道","line":"9号線千代田線","company":"東京地下鉄","code":"003879","lat":35.66606,"lng":139.7105},{"name":"新木場","line":"臨海副都心線","company":"東京臨海高速鉄道","code":"003997","lat":35.64592,"lng":139.82786},{"name":"東雲","line":"臨海副都心線","company":"東京臨海高速鉄道","code":"004034","lat":35.64117,"lng":139.80533},{"name":"国際展示場","line":"臨海副都心線","company":"東京臨海高速鉄道","code":"004065","lat":35.63406,"lng":139.79104},{"name":"東京テレポート","line":"臨海副都心線","company":"東京臨海高速鉄道","code":"004108","lat":35.62728,"lng":139.77844},{"name":"天王洲アイル","line":"臨海副都心線","company":"東京臨海高速鉄道","code":"004129","lat":35.62171,"lng":139.75095},{"name":"大崎","line":"臨海副都心線","company":"東京臨海高速鉄道","code":"004136","lat":35.62041,"lng":139.72743},{"name":"品川シーサイド","line":"臨海副都心線","company":"東京臨海高速鉄道","code":"004182","lat":35.61068,"lng":139.74996},{"name":"大井町","line":"臨海副都心線","company":"東京臨海高速鉄道","code":"004197","lat":35.60761,"lng":139.73291},{"name":"本八幡","line":"10号線新宿線","company":"東京都","code":"003449","lat":35.72407,"lng":139.92749},{"name":"篠崎","line":"10号線新宿線","company":"東京都","code":"003565","lat":35.70681,"lng":139.90459},{"name":"神保町","line":"10号線新宿線","company":"東京都","code":"003651","lat":35.695949,"lng":139.756854},{"name":"岩本町","line":"10号線新宿線","company":"東京都","code":"003655","lat":35.69553,"lng":139.77626},{"name":"九段下","line":"10号線新宿線","company":"東京都","code":"003657","lat":35.69569,"lng":139.75215},{"name":"小川町","line":"10号線新宿線","company":"東京都","code":"003659","lat":35.69561,"lng":139.76788},{"name":"瑞江","line":"10号線新宿線","company":"東京都","code":"003667","lat":35.6941,"lng":139.89831},{"name":"曙橋","line":"10号線新宿線","company":"東京都","code":"003673","lat":35.6923,"lng":139.72357},{"name":"馬喰横山","line":"10号線新宿線","company":"東京都","code":"003675","lat":35.69134,"lng":139.78369},{"name":"市ヶ谷","line":"10号線新宿線","company":"東京都","code":"003680","lat":35.69171,"lng":139.73828},{"name":"新宿三丁目","line":"10号線新宿線","company":"東京都","code":"003687","lat":35.69114,"lng":139.70749},{"name":"東大島","line":"10号線新宿線","company":"東京都","code":"003695","lat":35.68926,"lng":139.84892},{"name":"大島","line":"10号線新宿線","company":"東京都","code":"003698","lat":35.68985,"lng":139.83522},{"name":"西大島","line":"10号線新宿線","company":"東京都","code":"003702","lat":35.68933,"lng":139.82728},{"name":"住吉","line":"10号線新宿線","company":"東京都","code":"003704","lat":35.689,"lng":139.81666},{"name":"浜町","line":"10号線新宿線","company":"東京都","code":"003706","lat":35.68839,"lng":139.78898},{"name":"新宿","line":"10号線新宿線","company":"東京都","code":"003708","lat":35.68871,"lng":139.69932},{"name":"菊川","line":"10号線新宿線","company":"東京都","code":"003709","lat":35.68848,"lng":139.80708},{"name":"森下","line":"10号線新宿線","company":"東京都","code":"003711","lat":35.68807,"lng":139.79919},{"name":"一之江","line":"10号線新宿線","company":"東京都","code":"003724","lat":35.68608,"lng":139.8839},{"name":"船堀","line":"10号線新宿線","company":"東京都","code":"003745","lat":35.68382,"lng":139.86487},{"name":"光が丘","line":"12号線大江戸線","company":"東京都","code":"003225","lat":35.75848,"lng":139.62997},{"name":"練馬春日町","line":"12号線大江戸線","company":"東京都","code":"003243","lat":35.75108,"lng":139.64161},{"name":"豊島園","line":"12号線大江戸線","company":"東京都","code":"003309","lat":35.74074,"lng":139.64918},{"name":"練馬","line":"12号線大江戸線","company":"東京都","code":"003338","lat":35.73748,"lng":139.65551},{"name":"新江古田","line":"12号線大江戸線","company":"東京都","code":"003367","lat":35.73221,"lng":139.67133},{"name":"落合南長崎","line":"12号線大江戸線","company":"東京都","code":"003448","lat":35.72282,"lng":139.68387},{"name":"中井","line":"12号線大江戸線","company":"東京都","code":"003503","lat":35.71321,"lng":139.686},{"name":"春日","line":"12号線大江戸線","company":"東京都","code":"003539","lat":35.7085,"lng":139.75136},{"name":"上野御徒町","line":"12号線大江戸線","company":"東京都","code":"003543","lat":35.70804,"lng":139.77226},{"name":"本郷三丁目","line":"12号線大江戸線","company":"東京都","code":"003546","lat":35.70754,"lng":139.7598},{"name":"東中野","line":"12号線大江戸線","company":"東京都","code":"003549","lat":35.70672,"lng":139.68296},{"name":"新御徒町","line":"12号線大江戸線","company":"東京都","code":"003556","lat":35.70692,"lng":139.78272},{"name":"蔵前","line":"12号線大江戸線","company":"東京都","code":"003571","lat":35.70522,"lng":139.793},{"name":"飯田橋","line":"12号線大江戸線","company":"東京都","code":"003585","lat":35.70335,"lng":139.74646},{"name":"牛込神楽坂","line":"12号線大江戸線","company":"東京都","code":"003602","lat":35.70121,"lng":139.73677},{"name":"牛込柳町","line":"12号線大江戸線","company":"東京都","code":"003618","lat":35.6994,"lng":139.72599},{"name":"若松河田","line":"12号線大江戸線","company":"東京都","code":"003623","lat":35.6994,"lng":139.71894},{"name":"東新宿","line":"12号線大江戸線","company":"東京都","code":"003630","lat":35.69779,"lng":139.70852},{"name":"中野坂上","line":"12号線大江戸線","company":"東京都","code":"003631","lat":35.69717,"lng":139.68293},{"name":"両国","line":"12号線大江戸線","company":"東京都","code":"003646","lat":35.69751,"lng":139.79737},{"name":"新宿西口","line":"12号線大江戸線","company":"東京都","code":"003669","lat":35.69382,"lng":139.69901},{"name":"都庁前","line":"12号線大江戸線","company":"東京都","code":"003690","lat":35.69073,"lng":139.69345},{"name":"西新宿五丁目","line":"12号線大江戸線","company":"東京都","code":"003696","lat":35.6902,"lng":139.68535},{"name":"森下","line":"12号線大江戸線","company":"東京都","code":"003712","lat":35.68726,"lng":139.79826},{"name":"新宿","line":"12号線大江戸線","company":"東京都","code":"003715","lat":35.68716,"lng":139.69952},{"name":"代々木","line":"12号線大江戸線","company":"東京都","code":"003746","lat":35.683,"lng":139.70174},{"name":"清澄白河","line":"12号線大江戸線","company":"東京都","code":"003754","lat":35.68222,"lng":139.79875},{"name":"国立競技場","line":"12号線大江戸線","company":"東京都","code":"003775","lat":35.67963,"lng":139.71583},{"name":"青山一丁目","line":"12号線大江戸線","company":"東京都","code":"003813","lat":35.67216,"lng":139.72434},{"name":"門前仲町","line":"12号線大江戸線","company":"東京都","code":"003818","lat":35.67324,"lng":139.79542},{"name":"築地市場","line":"12号線大江戸線","company":"東京都","code":"003886","lat":35.66462,"lng":139.76718},{"name":"汐留","line":"12号線大江戸線","company":"東京都","code":"003887","lat":35.66625,"lng":139.76245},{"name":"六本木","line":"12号線大江戸線","company":"東京都","code":"003892","lat":35.66448,"lng":139.73076},{"name":"月島","line":"12号線大江戸線","company":"東京都","code":"003893","lat":35.66441,"lng":139.78479},{"name":"勝どき","line":"12号線大江戸線","company":"東京都","code":"003927","lat":35.65938,"lng":139.77778},{"name":"大門","line":"12号線大江戸線","company":"東京都","code":"003939","lat":35.65674,"lng":139.75498},{"name":"麻布十番","line":"12号線大江戸線","company":"東京都","code":"003941","lat":35.65665,"lng":139.73539},{"name":"赤羽橋","line":"12号線大江戸線","company":"東京都","code":"003954","lat":35.65505,"lng":139.74342},{"name":"押上","line":"1号線浅草線","company":"東京都","code":"003526","lat":35.70972,"lng":139.81158},{"name":"浅草","line":"1号線浅草線","company":"東京都","code":"003537","lat":35.70949,"lng":139.79725},{"name":"本所吾妻橋","line":"1号線浅草線","company":"東京都","code":"003538","lat":35.70854,"lng":139.80368},{"name":"蔵前","line":"1号線浅草線","company":"東京都","code":"003583","lat":35.70268,"lng":139.7903},{"name":"浅草橋","line":"1号線浅草線","company":"東京都","code":"003636","lat":35.69687,"lng":139.78598},{"name":"東日本橋","line":"1号線浅草線","company":"東京都","code":"003676","lat":35.69304,"lng":139.78497},{"name":"人形町","line":"1号線浅草線","company":"東京都","code":"003721","lat":35.68662,"lng":139.78263},{"name":"日本橋","line":"1号線浅草線","company":"東京都","code":"003762","lat":35.68209,"lng":139.77607},{"name":"宝町","line":"1号線浅草線","company":"東京都","code":"003796","lat":35.67617,"lng":139.77242},{"name":"東銀座","line":"1号線浅草線","company":"東京都","code":"003838","lat":35.66901,"lng":139.76645},{"name":"新橋","line":"1号線浅草線","company":"東京都","code":"003888","lat":35.66432,"lng":139.75852},{"name":"大門","line":"1号線浅草線","company":"東京都","code":"003940","lat":35.65738,"lng":139.75477},{"name":"三田","line":"1号線浅草線","company":"東京都","code":"003987","lat":35.64815,"lng":139.75015},{"name":"泉岳寺","line":"1号線浅草線","company":"東京都","code":"004042","lat":35.63746,"lng":139.73938},{"name":"高輪台","line":"1号線浅草線","company":"東京都","code":"004079","lat":35.63122,"lng":139.72975},{"name":"五反田","line":"1号線浅草線","company":"東京都","code":"004107","lat":35.6267,"lng":139.72357},{"name":"戸越","line":"1号線浅草線","company":"東京都","code":"004161","lat":35.61374,"lng":139.71611},{"name":"中延","line":"1号線浅草線","company":"東京都","code":"004218","lat":35.60442,"lng":139.71344},{"name":"馬込","line":"1号線浅草線","company":"東京都","code":"004248","lat":35.59575,"lng":139.71171},{"name":"西馬込","line":"1号線浅草線","company":"東京都","code":"004270","lat":35.58668,"lng":139.70585},{"name":"西高島平","line":"6号線三田線","company":"東京都","code":"003104","lat":35.79169,"lng":139.64682},{"name":"新高島平","line":"6号線三田線","company":"東京都","code":"003112","lat":35.79004,"lng":139.65529},{"name":"高島平","line":"6号線三田線","company":"東京都","code":"003117","lat":35.78875,"lng":139.66224},{"name":"西台","line":"6号線三田線","company":"東京都","code":"003128","lat":35.78699,"lng":139.67367},{"name":"蓮根","line":"6号線三田線","company":"東京都","code":"003140","lat":35.78342,"lng":139.67898},{"name":"志村三丁目","line":"6号線三田線","company":"東京都","code":"003158","lat":35.77767,"lng":139.68673},{"name":"志村坂上","line":"6号線三田線","company":"東京都","code":"003165","lat":35.77578,"lng":139.6953},{"name":"本蓮沼","line":"6号線三田線","company":"東京都","code":"003193","lat":35.76837,"lng":139.70253},{"name":"板橋本町","line":"6号線三田線","company":"東京都","code":"003216","lat":35.76072,"lng":139.70575},{"name":"板橋区役所前","line":"6号線三田線","company":"東京都","code":"003245","lat":35.75179,"lng":139.70946},{"name":"新板橋","line":"6号線三田線","company":"東京都","code":"003268","lat":35.74893,"lng":139.71848},{"name":"西巣鴨","line":"6号線三田線","company":"東京都","code":"003293","lat":35.74404,"lng":139.72814},{"name":"巣鴨","line":"6号線三田線","company":"東京都","code":"003354","lat":35.73426,"lng":139.73742},{"name":"千石","line":"6号線三田線","company":"東京都","code":"003415","lat":35.72845,"lng":139.74409},{"name":"白山","line":"6号線三田線","company":"東京都","code":"003461","lat":35.72204,"lng":139.75249},{"name":"春日","line":"6号線三田線","company":"東京都","code":"003529","lat":35.70913,"lng":139.75347},{"name":"水道橋","line":"6号線三田線","company":"東京都","code":"003580","lat":35.70269,"lng":139.75541},{"name":"神保町","line":"6号線三田線","company":"東京都","code":"003660","lat":35.69427,"lng":139.758459},{"name":"大手町","line":"6号線三田線","company":"東京都","code":"003742","lat":35.68324,"lng":139.76236},{"name":"日比谷","line":"6号線三田線","company":"東京都","code":"003793","lat":35.67589,"lng":139.75989},{"name":"内幸町","line":"6号線三田線","company":"東京都","code":"003842","lat":35.66983,"lng":139.75567},{"name":"御成門","line":"6号線三田線","company":"東京都","code":"003911","lat":35.66169,"lng":139.75183},{"name":"芝公園","line":"6号線三田線","company":"東京都","code":"003962","lat":35.65416,"lng":139.74983},{"name":"三田","line":"6号線三田線","company":"東京都","code":"003986","lat":35.64869,"lng":139.74897},{"name":"白金高輪","line":"6号線三田線","company":"東京都","code":"004025","lat":35.64385,"lng":139.73469},{"name":"白金台","line":"6号線三田線","company":"東京都","code":"004044","lat":35.63814,"lng":139.72671},{"name":"目黒","line":"6号線三田線","company":"東京都","code":"004072","lat":35.6332,"lng":139.71542},{"name":"見沼代親水公園","line":"日暮里・舎人ライナー","company":"東京都","code":"003060","lat":35.81442,"lng":139.77068},{"name":"舎人","line":"日暮里・舎人ライナー","company":"東京都","code":"003078","lat":35.8055,"lng":139.77014},{"name":"舎人公園","line":"日暮里・舎人ライナー","company":"東京都","code":"003098","lat":35.79621,"lng":139.77012},{"name":"谷在家","line":"日暮里・舎人ライナー","company":"東京都","code":"003120","lat":35.78843,"lng":139.7701},{"name":"西新井大師西","line":"日暮里・舎人ライナー","company":"東京都","code":"003144","lat":35.78083,"lng":139.77014},{"name":"江北","line":"日暮里・舎人ライナー","company":"東京都","code":"003171","lat":35.77338,"lng":139.77037},{"name":"高野","line":"日暮里・舎人ライナー","company":"東京都","code":"003196","lat":35.76784,"lng":139.77075},{"name":"扇大橋","line":"日暮里・舎人ライナー","company":"東京都","code":"003209","lat":35.76375,"lng":139.77086},{"name":"足立小台","line":"日暮里・舎人ライナー","company":"東京都","code":"003235","lat":35.75438,"lng":139.77017},{"name":"熊野前","line":"日暮里・舎人ライナー","company":"東京都","code":"003270","lat":35.74785,"lng":139.76988},{"name":"赤土小学校前","line":"日暮里・舎人ライナー","company":"東京都","code":"003298","lat":35.74275,"lng":139.7691},{"name":"西日暮里","line":"日暮里・舎人ライナー","company":"東京都","code":"003358","lat":35.73327,"lng":139.76809},{"name":"日暮里","line":"日暮里・舎人ライナー","company":"東京都","code":"003406","lat":35.72854,"lng":139.77086},{"name":"王子駅前","line":"荒川線","company":"東京都","code":"003239","lat":35.75256,"lng":139.73846},{"name":"梶原","line":"荒川線","company":"東京都","code":"003246","lat":35.75107,"lng":139.74758},{"name":"荒川車庫前","line":"荒川線","company":"東京都","code":"003252","lat":35.75087,"lng":139.75256},{"name":"栄町","line":"荒川線","company":"東京都","code":"003253","lat":35.75082,"lng":139.74193},{"name":"荒川遊園地前","line":"荒川線","company":"東京都","code":"003254","lat":35.75064,"lng":139.75775},{"name":"小台","line":"荒川線","company":"東京都","code":"003255","lat":35.75048,"lng":139.762},{"name":"飛鳥山","line":"荒川線","company":"東京都","code":"003256","lat":35.74989,"lng":139.73721},{"name":"宮ノ前","line":"荒川線","company":"東京都","code":"003259","lat":35.74991,"lng":139.76564},{"name":"熊野前","line":"荒川線","company":"東京都","code":"003266","lat":35.74914,"lng":139.76955},{"name":"滝野川一丁目","line":"荒川線","company":"東京都","code":"003276","lat":35.74742,"lng":139.7355},{"name":"東尾久三丁目","line":"荒川線","company":"東京都","code":"003284","lat":35.74549,"lng":139.77405},{"name":"西ヶ原四丁目","line":"荒川線","company":"東京都","code":"003289","lat":35.74404,"lng":139.73254},{"name":"町屋二丁目","line":"荒川線","company":"東京都","code":"003291","lat":35.74375,"lng":139.77665},{"name":"町屋駅前","line":"荒川線","company":"東京都","code":"003299","lat":35.7428,"lng":139.78067},{"name":"荒川七丁目","line":"荒川線","company":"東京都","code":"003306","lat":35.74205,"lng":139.78392},{"name":"新庚申塚","line":"荒川線","company":"東京都","code":"003310","lat":35.74092,"lng":139.73024},{"name":"庚申塚","line":"荒川線","company":"東京都","code":"003319","lat":35.73892,"lng":139.72947},{"name":"荒川二丁目","line":"荒川線","company":"東京都","code":"003322","lat":35.73837,"lng":139.78469},{"name":"荒川区役所前","line":"荒川線","company":"東京都","code":"003350","lat":35.73519,"lng":139.78617},{"name":"巣鴨新田","line":"荒川線","company":"東京都","code":"003351","lat":35.73496,"lng":139.72804},{"name":"荒川一中前","line":"荒川線","company":"東京都","code":"003357","lat":35.73376,"lng":139.78868},{"name":"三ノ輪橋","line":"荒川線","company":"東京都","code":"003370","lat":35.73209,"lng":139.79174},{"name":"大塚駅前","line":"荒川線","company":"東京都","code":"003378","lat":35.73145,"lng":139.7294},{"name":"向原","line":"荒川線","company":"東京都","code":"003407","lat":35.7286,"lng":139.72463},{"name":"東池袋四丁目","line":"荒川線","company":"東京都","code":"003436","lat":35.7254,"lng":139.7205},{"name":"都電雑司ヶ谷","line":"荒川線","company":"東京都","code":"003443","lat":35.72433,"lng":139.7181},{"name":"鬼子母神前","line":"荒川線","company":"東京都","code":"003468","lat":35.7204,"lng":139.71502},{"name":"学習院下","line":"荒川線","company":"東京都","code":"003490","lat":35.71554,"lng":139.71221},{"name":"面影橋","line":"荒川線","company":"東京都","code":"003509","lat":35.71281,"lng":139.71492},{"name":"早稲田","line":"荒川線","company":"東京都","code":"003514","lat":35.71181,"lng":139.71929},{"name":"こどもの国","line":"こどもの国線","company":"東急電鉄","code":"004341","lat":35.55761,"lng":139.48677},{"name":"恩田","line":"こどもの国線","company":"東急電鉄","code":"004377","lat":35.54596,"lng":139.49176},{"name":"長津田","line":"こどもの国線","company":"東急電鉄","code":"004429","lat":35.53185,"lng":139.49536},{"name":"下高井戸","line":"世田谷線","company":"東急電鉄","code":"003877","lat":35.66591,"lng":139.64116},{"name":"松原","line":"世田谷線","company":"東急電鉄","code":"003915","lat":35.65984,"lng":139.6419},{"name":"山下","line":"世田谷線","company":"東急電鉄","code":"003957","lat":35.65385,"lng":139.64647},{"name":"宮の坂","line":"世田谷線","company":"東急電鉄","code":"003989","lat":35.64719,"lng":139.64481},{"name":"若林","line":"世田谷線","company":"東急電鉄","code":"003996","lat":35.646,"lng":139.6603},{"name":"西太子堂","line":"世田谷線","company":"東急電鉄","code":"004006","lat":35.64438,"lng":139.66672},{"name":"三軒茶屋","line":"世田谷線","company":"東急電鉄","code":"004016","lat":35.64413,"lng":139.66961},{"name":"松陰神社前","line":"世田谷線","company":"東急電鉄","code":"004017","lat":35.64395,"lng":139.65535},{"name":"上町","line":"世田谷線","company":"東急電鉄","code":"004020","lat":35.64338,"lng":139.64667},{"name":"世田谷","line":"世田谷線","company":"東急電鉄","code":"004021","lat":35.64353,"lng":139.65126},{"name":"上野毛","line":"大井町線","company":"東急電鉄","code":"004175","lat":35.61171,"lng":139.63945},{"name":"二子玉川","line":"大井町線","company":"東急電鉄","code":"004177","lat":35.61036,"lng":139.6255},{"name":"戸越公園","line":"大井町線","company":"東急電鉄","code":"004186","lat":35.60885,"lng":139.71798},{"name":"下神明","line":"大井町線","company":"東急電鉄","code":"004188","lat":35.60884,"lng":139.72594},{"name":"等々力","line":"大井町線","company":"東急電鉄","code":"004191","lat":35.60823,"lng":139.64849},{"name":"大井町","line":"大井町線","company":"東急電鉄","code":"004193","lat":35.60759,"lng":139.73506},{"name":"自由が丘","line":"大井町線","company":"東急電鉄","code":"004196","lat":35.60767,"lng":139.66974},{"name":"大岡山","line":"大井町線","company":"東急電鉄","code":"004202","lat":35.60724,"lng":139.68547},{"name":"尾山台","line":"大井町線","company":"東急電鉄","code":"004205","lat":35.60678,"lng":139.65482},{"name":"緑が丘","line":"大井町線","company":"東急電鉄","code":"004210","lat":35.60637,"lng":139.67955},{"name":"北千束","line":"大井町線","company":"東急電鉄","code":"004212","lat":35.60615,"lng":139.69366},{"name":"中延","line":"大井町線","company":"東急電鉄","code":"004215","lat":35.60548,"lng":139.7122},{"name":"九品仏","line":"大井町線","company":"東急電鉄","code":"004216","lat":35.60531,"lng":139.66144},{"name":"旗の台","line":"大井町線","company":"東急電鉄","code":"004221","lat":35.60485,"lng":139.70266},{"name":"荏原町","line":"大井町線","company":"東急電鉄","code":"004225","lat":35.60382,"lng":139.70713},{"name":"多摩川","line":"東急多摩川線","company":"東急電鉄","code":"004261","lat":35.59037,"lng":139.6685},{"name":"沼部","line":"東急多摩川線","company":"東急電鉄","code":"004279","lat":35.58275,"lng":139.6729},{"name":"鵜の木","line":"東急多摩川線","company":"東急電鉄","code":"004299","lat":35.57563,"lng":139.68031},{"name":"下丸子","line":"東急多摩川線","company":"東急電鉄","code":"004310","lat":35.57149,"lng":139.68514},{"name":"武蔵新田","line":"東急多摩川線","company":"東急電鉄","code":"004317","lat":35.56797,"lng":139.69212},{"name":"矢口渡","line":"東急多摩川線","company":"東急電鉄","code":"004329","lat":35.5626,"lng":139.69994},{"name":"蒲田","line":"東急多摩川線","company":"東急電鉄","code":"004333","lat":35.56162,"lng":139.71419},{"name":"新綱島","line":"東急新横浜線","company":"東急電鉄","code":"010165","lat":35.535286,"lng":139.635799},{"name":"新横浜","line":"東急新横浜線","company":"東急電鉄","code":"010166","lat":35.508294,"lng":139.616433},{"name":"日吉","line":"東急新横浜線","company":"東急電鉄","code":"010167","lat":35.55282,"lng":139.64669},{"name":"渋谷","line":"東横線","company":"東急電鉄","code":"003926","lat":35.658263,"lng":139.702926},{"name":"代官山","line":"東横線","company":"東急電鉄","code":"003985","lat":35.64805,"lng":139.70316},{"name":"中目黒","line":"東横線","company":"東急電鉄","code":"004015","lat":35.64352,"lng":139.69815},{"name":"祐天寺","line":"東横線","company":"東急電鉄","code":"004050","lat":35.63668,"lng":139.69035},{"name":"学芸大学","line":"東横線","company":"東急電鉄","code":"004094","lat":35.62816,"lng":139.68487},{"name":"都立大学","line":"東横線","company":"東急電鉄","code":"004143","lat":35.61734,"lng":139.67596},{"name":"自由が丘","line":"東横線","company":"東急電鉄","code":"004199","lat":35.60665,"lng":139.66838},{"name":"田園調布","line":"東横線","company":"東急電鉄","code":"004245","lat":35.59795,"lng":139.66726},{"name":"多摩川","line":"東横線","company":"東急電鉄","code":"004262","lat":35.59037,"lng":139.6685},{"name":"新丸子","line":"東横線","company":"東急電鉄","code":"004287","lat":35.581,"lng":139.6622},{"name":"武蔵小杉","line":"東横線","company":"東急電鉄","code":"004298","lat":35.57663,"lng":139.66006},{"name":"元住吉","line":"東横線","company":"東急電鉄","code":"004322","lat":35.5663,"lng":139.655},{"name":"日吉","line":"東横線","company":"東急電鉄","code":"004351","lat":35.55516,"lng":139.64737},{"name":"綱島","line":"東横線","company":"東急電鉄","code":"004406","lat":35.53717,"lng":139.6351},{"name":"大倉山","line":"東横線","company":"東急電鉄","code":"004452","lat":35.52291,"lng":139.629848},{"name":"菊名","line":"東横線","company":"東急電鉄","code":"004487","lat":35.51127,"lng":139.63118},{"name":"妙蓮寺","line":"東横線","company":"東急電鉄","code":"004528","lat":35.49842,"lng":139.63327},{"name":"白楽","line":"東横線","company":"東急電鉄","code":"004554","lat":35.48912,"lng":139.62779},{"name":"東白楽","line":"東横線","company":"東急電鉄","code":"004572","lat":35.4831,"lng":139.62963},{"name":"反町","line":"東横線","company":"東急電鉄","code":"004608","lat":35.47491,"lng":139.6254},{"name":"横浜","line":"東横線","company":"東急電鉄","code":"004628","lat":35.46687,"lng":139.62275},{"name":"五反田","line":"池上線","company":"東急電鉄","code":"004117","lat":35.62457,"lng":139.72385},{"name":"大崎広小路","line":"池上線","company":"東急電鉄","code":"004127","lat":35.62202,"lng":139.72206},{"name":"戸越銀座","line":"池上線","company":"東急電鉄","code":"004155","lat":35.61569,"lng":139.71485},{"name":"荏原中延","line":"池上線","company":"東急電鉄","code":"004181","lat":35.60979,"lng":139.71191},{"name":"旗の台","line":"池上線","company":"東急電鉄","code":"004219","lat":35.60495,"lng":139.70299},{"name":"長原","line":"池上線","company":"東急電鉄","code":"004232","lat":35.60205,"lng":139.69763},{"name":"洗足池","line":"池上線","company":"東急電鉄","code":"004239","lat":35.59955,"lng":139.69051},{"name":"石川台","line":"池上線","company":"東急電鉄","code":"004247","lat":35.59664,"lng":139.68475},{"name":"雪が谷大塚","line":"池上線","company":"東急電鉄","code":"004259","lat":35.59162,"lng":139.6809},{"name":"御嶽山","line":"池上線","company":"東急電鉄","code":"004273","lat":35.58491,"lng":139.68255},{"name":"久が原","line":"池上線","company":"東急電鉄","code":"004292","lat":35.57915,"lng":139.68589},{"name":"千鳥町","line":"池上線","company":"東急電鉄","code":"004305","lat":35.57275,"lng":139.6917},{"name":"池上","line":"池上線","company":"東急電鉄","code":"004309","lat":35.57191,"lng":139.70326},{"name":"蓮沼","line":"池上線","company":"東急電鉄","code":"004323","lat":35.56366,"lng":139.70876},{"name":"蒲田","line":"池上線","company":"東急電鉄","code":"004330","lat":35.56179,"lng":139.71501},{"name":"渋谷","line":"田園都市線","company":"東急電鉄","code":"003923","lat":35.65945,"lng":139.7021},{"name":"池尻大橋","line":"田園都市線","company":"東急電鉄","code":"003972","lat":35.65116,"lng":139.68555},{"name":"三軒茶屋","line":"田園都市線","company":"東急電鉄","code":"004022","lat":35.64267,"lng":139.6704},{"name":"駒沢大学","line":"田園都市線","company":"東急電鉄","code":"004069","lat":35.63351,"lng":139.66177},{"name":"桜新町","line":"田園都市線","company":"東急電鉄","code":"004078","lat":35.63176,"lng":139.64658},{"name":"用賀","line":"田園都市線","company":"東急電鉄","code":"004109","lat":35.62721,"lng":139.63507},{"name":"二子玉川","line":"田園都市線","company":"東急電鉄","code":"004178","lat":35.61036,"lng":139.6255},{"name":"二子新地","line":"田園都市線","company":"東急電鉄","code":"004198","lat":35.60671,"lng":139.62212},{"name":"高津","line":"田園都市線","company":"東急電鉄","code":"004230","lat":35.60303,"lng":139.61681},{"name":"溝の口","line":"田園都市線","company":"東急電鉄","code":"004238","lat":35.59929,"lng":139.60978},{"name":"梶が谷","line":"田園都市線","company":"東急電鉄","code":"004257","lat":35.59322,"lng":139.60513},{"name":"宮崎台","line":"田園都市線","company":"東急電鉄","code":"004271","lat":35.58668,"lng":139.58993},{"name":"宮前平","line":"田園都市線","company":"東急電鉄","code":"004274","lat":35.5851,"lng":139.58347},{"name":"鷺沼","line":"田園都市線","company":"東急電鉄","code":"004290","lat":35.57921,"lng":139.57255},{"name":"たまプラーザ","line":"田園都市線","company":"東急電鉄","code":"004296","lat":35.57763,"lng":139.55955},{"name":"あざみ野","line":"田園都市線","company":"東急電鉄","code":"004314","lat":35.56914,"lng":139.55362},{"name":"江田","line":"田園都市線","company":"東急電鉄","code":"004340","lat":35.55889,"lng":139.55163},{"name":"市が尾","line":"田園都市線","company":"東急電鉄","code":"004360","lat":35.55172,"lng":139.5417},{"name":"藤が丘","line":"田園都市線","company":"東急電鉄","code":"004391","lat":35.54347,"lng":139.52805},{"name":"青葉台","line":"田園都市線","company":"東急電鉄","code":"004392","lat":35.54289,"lng":139.51795},{"name":"田奈","line":"田園都市線","company":"東急電鉄","code":"004412","lat":35.53633,"lng":139.50506},{"name":"長津田","line":"田園都市線","company":"東急電鉄","code":"004430","lat":35.53181,"lng":139.49313},{"name":"つくし野","line":"田園都市線","company":"東急電鉄","code":"004441","lat":35.52621,"lng":139.48472},{"name":"すずかけ台","line":"田園都市線","company":"東急電鉄","code":"004466","lat":35.51649,"lng":139.4813},{"name":"南町田グランベリーパーク","line":"田園都市線","company":"東急電鉄","code":"004484","lat":35.51144,"lng":139.46939},{"name":"つきみ野","line":"田園都市線","company":"東急電鉄","code":"004486","lat":35.51036,"lng":139.45788},{"name":"中央林間","line":"田園都市線","company":"東急電鉄","code":"004500","lat":35.50774,"lng":139.44429},{"name":"目黒","line":"目黒線","company":"東急電鉄","code":"004074","lat":35.6332,"lng":139.71542},{"name":"不動前","line":"目黒線","company":"東急電鉄","code":"004114","lat":35.62522,"lng":139.71279},{"name":"武蔵小山","line":"目黒線","company":"東急電鉄","code":"004133","lat":35.6202,"lng":139.70392},{"name":"西小山","line":"目黒線","company":"東急電鉄","code":"004157","lat":35.61513,"lng":139.69845},{"name":"洗足","line":"目黒線","company":"東急電鉄","code":"004180","lat":35.60975,"lng":139.69377},{"name":"大岡山","line":"目黒線","company":"東急電鉄","code":"004200","lat":35.60699,"lng":139.68404},{"name":"奥沢","line":"目黒線","company":"東急電鉄","code":"004223","lat":35.60383,"lng":139.67197},{"name":"田園調布","line":"目黒線","company":"東急電鉄","code":"004246","lat":35.59795,"lng":139.66726},{"name":"本庄早稲田","line":"上越新幹線","company":"東日本旅客鉄道","code":"002525","lat":36.21958,"lng":139.1779},{"name":"熊谷","line":"上越新幹線","company":"東日本旅客鉄道","code":"002589","lat":36.13894,"lng":139.39115},{"name":"大宮","line":"上越新幹線","company":"東日本旅客鉄道","code":"002914","lat":35.90445,"lng":139.62381},{"name":"東中野","line":"中央線","company":"東日本旅客鉄道","code":"003563","lat":35.70628,"lng":139.68626},{"name":"中野","line":"中央線","company":"東日本旅客鉄道","code":"003568","lat":35.70579,"lng":139.66688},{"name":"高円寺","line":"中央線","company":"東日本旅客鉄道","code":"003573","lat":35.70536,"lng":139.65078},{"name":"阿佐ヶ谷","line":"中央線","company":"東日本旅客鉄道","code":"003574","lat":35.70491,"lng":139.63722},{"name":"荻窪","line":"中央線","company":"東日本旅客鉄道","code":"003575","lat":35.7044,"lng":139.61898},{"name":"西荻窪","line":"中央線","company":"東日本旅客鉄道","code":"003579","lat":35.70373,"lng":139.59833},{"name":"吉祥寺","line":"中央線","company":"東日本旅客鉄道","code":"003584","lat":35.70311,"lng":139.57861},{"name":"三鷹","line":"中央線","company":"東日本旅客鉄道","code":"003587","lat":35.70268,"lng":139.55959},{"name":"武蔵境","line":"中央線","company":"東日本旅客鉄道","code":"003590","lat":35.70204,"lng":139.54228},{"name":"水道橋","line":"中央線","company":"東日本旅客鉄道","code":"003591","lat":35.70209,"lng":139.75255},{"name":"東小金井","line":"中央線","company":"東日本旅客鉄道","code":"003594","lat":35.70152,"lng":139.52247},{"name":"武蔵小金井","line":"中央線","company":"東日本旅客鉄道","code":"003600","lat":35.70097,"lng":139.50481},{"name":"大久保","line":"中央線","company":"東日本旅客鉄道","code":"003604","lat":35.69978,"lng":139.69801},{"name":"国分寺","line":"中央線","company":"東日本旅客鉄道","code":"003606","lat":35.70018,"lng":139.48235},{"name":"飯田橋","line":"中央線","company":"東日本旅客鉄道","code":"003608","lat":35.6994,"lng":139.74303},{"name":"西国分寺","line":"中央線","company":"東日本旅客鉄道","code":"003614","lat":35.69978,"lng":139.4671},{"name":"御茶ノ水","line":"中央線","company":"東日本旅客鉄道","code":"003616","lat":35.69995,"lng":139.76372},{"name":"国立","line":"中央線","company":"東日本旅客鉄道","code":"003622","lat":35.69923,"lng":139.44773},{"name":"立川","line":"中央線","company":"東日本旅客鉄道","code":"003634","lat":35.69778,"lng":139.41516},{"name":"神田","line":"中央線","company":"東日本旅客鉄道","code":"003677","lat":35.69096,"lng":139.77054},{"name":"市ヶ谷","line":"中央線","company":"東日本旅客鉄道","code":"003685","lat":35.69152,"lng":139.73593},{"name":"新宿","line":"中央線","company":"東日本旅客鉄道","code":"003693","lat":35.68931,"lng":139.70055},{"name":"四ツ谷","line":"中央線","company":"東日本旅客鉄道","code":"003728","lat":35.68661,"lng":139.73087},{"name":"代々木","line":"中央線","company":"東日本旅客鉄道","code":"003744","lat":35.6845,"lng":139.70203},{"name":"千駄ヶ谷","line":"中央線","company":"東日本旅客鉄道","code":"003767","lat":35.68101,"lng":139.71279},{"name":"信濃町","line":"中央線","company":"東日本旅客鉄道","code":"003774","lat":35.67987,"lng":139.72241},{"name":"日野","line":"中央線","company":"東日本旅客鉄道","code":"003779","lat":35.67931,"lng":139.39383},{"name":"豊田","line":"中央線","company":"東日本旅客鉄道","code":"003921","lat":35.65882,"lng":139.38049},{"name":"西八王子","line":"中央線","company":"東日本旅客鉄道","code":"003942","lat":35.65681,"lng":139.31299},{"name":"八王子","line":"中央線","company":"東日本旅客鉄道","code":"003947","lat":35.65527,"lng":139.3401},{"name":"高尾","line":"中央線","company":"東日本旅客鉄道","code":"004029","lat":35.64283,"lng":139.28394},{"name":"上野原","line":"中央線","company":"東日本旅客鉄道","code":"004140","lat":35.61899,"lng":139.11653},{"name":"相模湖","line":"中央線","company":"東日本旅客鉄道","code":"004148","lat":35.61761,"lng":139.18743},{"name":"藤野","line":"中央線","company":"東日本旅客鉄道","code":"004156","lat":35.61607,"lng":139.15063},{"name":"四方津","line":"中央線","company":"東日本旅客鉄道","code":"004162","lat":35.6142,"lng":139.07494},{"name":"大月","line":"中央線","company":"東日本旅客鉄道","code":"004166","lat":35.61387,"lng":138.94406},{"name":"猿橋","line":"中央線","company":"東日本旅客鉄道","code":"004170","lat":35.61341,"lng":138.96983},{"name":"鳥沢","line":"中央線","company":"東日本旅客鉄道","code":"004192","lat":35.6081,"lng":139.00476},{"name":"梁川","line":"中央線","company":"東日本旅客鉄道","code":"004213","lat":35.60542,"lng":139.03828},{"name":"祇園","line":"久留里線","company":"東日本旅客鉄道","code":"004856","lat":35.3917,"lng":139.94875},{"name":"上総清川","line":"久留里線","company":"東日本旅客鉄道","code":"004857","lat":35.39084,"lng":139.96609},{"name":"東清川","line":"久留里線","company":"東日本旅客鉄道","code":"004860","lat":35.39002,"lng":139.98631},{"name":"横田","line":"久留里線","company":"東日本旅客鉄道","code":"004874","lat":35.38621,"lng":140.02067},{"name":"東横田","line":"久留里線","company":"東日本旅客鉄道","code":"004875","lat":35.38615,"lng":140.0364},{"name":"木更津","line":"久留里線","company":"東日本旅客鉄道","code":"004882","lat":35.38036,"lng":139.92599},{"name":"馬来田","line":"久留里線","company":"東日本旅客鉄道","code":"004926","lat":35.36649,"lng":140.05845},{"name":"下郡","line":"久留里線","company":"東日本旅客鉄道","code":"004957","lat":35.35463,"lng":140.0554},{"name":"小櫃","line":"久留里線","company":"東日本旅客鉄道","code":"005030","lat":35.32791,"lng":140.05985},{"name":"俵田","line":"久留里線","company":"東日本旅客鉄道","code":"005074","lat":35.31438,"lng":140.06175},{"name":"久留里","line":"久留里線","company":"東日本旅客鉄道","code":"005127","lat":35.29523,"lng":140.07574},{"name":"平山","line":"久留里線","company":"東日本旅客鉄道","code":"005173","lat":35.27402,"lng":140.06439},{"name":"上総松丘","line":"久留里線","company":"東日本旅客鉄道","code":"005209","lat":35.25788,"lng":140.06406},{"name":"上総亀山","line":"久留里線","company":"東日本旅客鉄道","code":"005274","lat":35.2334,"lng":140.08917},{"name":"武蔵五日市","line":"五日市線","company":"東日本旅客鉄道","code":"003372","lat":35.73271,"lng":139.22876},{"name":"武蔵増戸","line":"五日市線","company":"東日本旅客鉄道","code":"003383","lat":35.73089,"lng":139.25704},{"name":"武蔵引田","line":"五日市線","company":"東日本旅客鉄道","code":"003395","lat":35.72962,"lng":139.27072},{"name":"熊川","line":"五日市線","company":"東日本旅客鉄道","code":"003411","lat":35.72813,"lng":139.33609},{"name":"秋川","line":"五日市線","company":"東日本旅客鉄道","code":"003413","lat":35.72795,"lng":139.28745},{"name":"東秋留","line":"五日市線","company":"東日本旅客鉄道","code":"003433","lat":35.72594,"lng":139.3124},{"name":"拝島","line":"五日市線","company":"東日本旅客鉄道","code":"003464","lat":35.72202,"lng":139.34285},{"name":"西船橋","line":"京葉線","company":"東日本旅客鉄道","code":"003553","lat":35.70669,"lng":139.95915},{"name":"二俣新町","line":"京葉線","company":"東日本旅客鉄道","code":"003682","lat":35.6915,"lng":139.9604},{"name":"南船橋","line":"京葉線","company":"東日本旅客鉄道","code":"003761","lat":35.68131,"lng":139.99643},{"name":"東京","line":"京葉線","company":"東日本旅客鉄道","code":"003785","lat":35.67791,"lng":139.76414},{"name":"八丁堀","line":"京葉線","company":"東日本旅客鉄道","code":"003800","lat":35.67462,"lng":139.77885},{"name":"越中島","line":"京葉線","company":"東日本旅客鉄道","code":"003859","lat":35.66732,"lng":139.79331},{"name":"新習志野","line":"京葉線","company":"東日本旅客鉄道","code":"003863","lat":35.66685,"lng":140.01392},{"name":"市川塩浜","line":"京葉線","company":"東日本旅客鉄道","code":"003870","lat":35.66742,"lng":139.92413},{"name":"潮見","line":"京葉線","company":"東日本旅客鉄道","code":"003928","lat":35.6595,"lng":139.81653},{"name":"新浦安","line":"京葉線","company":"東日本旅客鉄道","code":"003978","lat":35.65021,"lng":139.91336},{"name":"海浜幕張","line":"京葉線","company":"東日本旅客鉄道","code":"003984","lat":35.64785,"lng":140.04291},{"name":"新木場","line":"京葉線","company":"東日本旅客鉄道","code":"003995","lat":35.6459,"lng":139.82584},{"name":"葛西臨海公園","line":"京葉線","company":"東日本旅客鉄道","code":"004012","lat":35.64382,"lng":139.86243},{"name":"検見川浜","line":"京葉線","company":"東日本旅客鉄道","code":"004049","lat":35.63649,"lng":140.06002},{"name":"舞浜","line":"京葉線","company":"東日本旅客鉄道","code":"004055","lat":35.63579,"lng":139.88473},{"name":"稲毛海岸","line":"京葉線","company":"東日本旅客鉄道","code":"004093","lat":35.62943,"lng":140.07499},{"name":"千葉みなと","line":"京葉線","company":"東日本旅客鉄道","code":"004209","lat":35.60606,"lng":140.10346},